[
 {
   "name": "Qal eh-ye",
   "lat": 34.98300013,
   "lng": 63.13329964
 },
 {
   "name": "Chaghcharan",
   "lat": 34.5167011,
   "lng": 65.25000063
 },
 {
   "name": "Lashkar Gah",
   "lat": 31.58299802,
   "lng": 64.35999955
 },
 {
   "name": "Zaranj",
   "lat": 31.11200108,
   "lng": 61.88699752
 },
 {
   "name": "Tarin Kowt",
   "lat": 32.63329815,
   "lng": 65.86669865
 },
 {
   "name": "Zareh Sharan",
   "lat": 32.85000016,
   "lng": 68.41670453
 },
 {
   "name": "Asadabad",
   "lat": 34.86600004,
   "lng": 71.15000459
 },
 {
   "name": "Taloqan",
   "lat": 36.72999904,
   "lng": 69.54000364
 },
 {
   "name": "Mahmud-E Eraqi",
   "lat": 35.01669608,
   "lng": 69.33330065
 },
 {
   "name": "Mehtar Lam",
   "lat": 34.65000001,
   "lng": 70.16670052
 },
 {
   "name": "Baraki Barak",
   "lat": 33.9667021,
   "lng": 68.96670354
 },
 {
   "name": "Aybak",
   "lat": 36.26100015,
   "lng": 68.04000051
 },
 {
   "name": "Mayda Shahr",
   "lat": 34.45000209,
   "lng": 68.79999663
 },
 {
   "name": "Karokh",
   "lat": 34.48676963,
   "lng": 62.59177608
 },
 {
   "name": "Sheberghan",
   "lat": 36.65798077,
   "lng": 65.73830237
 },
 {
   "name": "Pol-e Khomri",
   "lat": 35.95107302,
   "lng": 68.70111894
 },
 {
   "name": "Balkh",
   "lat": 36.75011985,
   "lng": 66.89973018
 },
 {
   "name": "Meymaneh",
   "lat": 35.93022158,
   "lng": 64.77009273
 },
 {
   "name": "Andkhvoy",
   "lat": 36.93165916,
   "lng": 65.10149369
 },
 {
   "name": "Qalat",
   "lat": 32.11226341,
   "lng": 66.8867594
 },
 {
   "name": "Ghazni",
   "lat": 33.56331179,
   "lng": 68.41782873
 },
 {
   "name": "Feyzabad",
   "lat": 37.12976076,
   "lng": 70.57924719
 },
 {
   "name": "Kondoz",
   "lat": 36.72795066,
   "lng": 68.87252966
 },
 {
   "name": "Jalalabad",
   "lat": 34.44152692,
   "lng": 70.43610347
 },
 {
   "name": "Charikar",
   "lat": 35.01826174,
   "lng": 69.16791215
 },
 {
   "name": "Gardiz",
   "lat": 33.60005373,
   "lng": 69.21462764
 },
 {
   "name": "Bamian",
   "lat": 34.82106447,
   "lng": 67.52103593
 },
 {
   "name": "Baghlan",
   "lat": 36.13933026,
   "lng": 68.69925858
 },
 {
   "name": "Farah",
   "lat": 32.39172955,
   "lng": 62.09681921
 },
 {
   "name": "Herat",
   "lat": 34.33000917,
   "lng": 62.16999304
 },
 {
   "name": "Mazar-e Sharif",
   "lat": 36.69999371,
   "lng": 67.10002803
 },
 {
   "name": "Kandahar",
   "lat": 31.61002016,
   "lng": 65.69494584
 },
 {
   "name": "Kabul",
   "lat": 34.51669029,
   "lng": 69.18326005
 },
 {
   "name": "Mariehamn",
   "lat": 60.09699618,
   "lng": 19.94900447
 },
 {
   "name": "Kruje",
   "lat": 41.51899817,
   "lng": 19.79700359
 },
 {
   "name": "Fier",
   "lat": 40.73000402,
   "lng": 19.5730026
 },
 {
   "name": "Lushnje",
   "lat": 40.94000113,
   "lng": 19.71600348
 },
 {
   "name": "Puke",
   "lat": 42.03330302,
   "lng": 19.88330448
 },
 {
   "name": "Bajram Curri",
   "lat": 42.33330007,
   "lng": 20.08330257
 },
 {
   "name": "Kukes",
   "lat": 42.08300107,
   "lng": 20.43399653
 },
 {
   "name": "Sarande",
   "lat": 39.87700212,
   "lng": 19.99999859
 },
 {
   "name": "Erseke",
   "lat": 40.33330213,
   "lng": 20.68329651
 },
 {
   "name": "Pogradec",
   "lat": 40.89999612,
   "lng": 20.66400062
 },
 {
   "name": "Korce",
   "lat": 40.61667601,
   "lng": 20.76666353
 },
 {
   "name": "Berat",
   "lat": 40.70999705,
   "lng": 19.97199958
 },
 {
   "name": "Corovode",
   "lat": 40.51670403,
   "lng": 20.23329663
 },
 {
   "name": "Gramsh",
   "lat": 40.86669601,
   "lng": 20.19999652
 },
 {
   "name": "Librazhd",
   "lat": 41.20000211,
   "lng": 20.3667036
 },
 {
   "name": "Tepelene",
   "lat": 40.2832981,
   "lng": 20.03329854
 },
 {
   "name": "Permet",
   "lat": 40.23399605,
   "lng": 20.35199756
 },
 {
   "name": "Gjirokaster",
   "lat": 40.07899809,
   "lng": 20.14900256
 },
 {
   "name": "Peshkopi",
   "lat": 41.6833021,
   "lng": 20.43330349
 },
 {
   "name": "Burrel",
   "lat": 41.62599908,
   "lng": 20.01600053
 },
 {
   "name": "Lezhe",
   "lat": 41.78799914,
   "lng": 19.65400254
 },
 {
   "name": "Rreshen",
   "lat": 41.78330106,
   "lng": 19.81670459
 },
 {
   "name": "Vlore",
   "lat": 40.47736005,
   "lng": 19.49823075
 },
 {
   "name": "Elbasan",
   "lat": 41.12150677,
   "lng": 20.08382808
 },
 {
   "name": "Durres",
   "lat": 41.3177997,
   "lng": 19.44820797
 },
 {
   "name": "Shkoder",
   "lat": 42.06845156,
   "lng": 19.51884965
 },
 {
   "name": "Tirana",
   "lat": 41.32754071,
   "lng": 19.81888301
 },
 {
   "name": "Jijel",
   "lat": 36.82199703,
   "lng": 5.76600356
 },
 {
   "name": "Tizi-Ouzou",
   "lat": 36.80000111,
   "lng": 4.033332556
 },
 {
   "name": "Bordj Bou Arreridj",
   "lat": 36.05900401,
   "lng": 4.629996466
 },
 {
   "name": "M'sila",
   "lat": 35.7000031,
   "lng": 4.545000584
 },
 {
   "name": "Guelma",
   "lat": 36.46600213,
   "lng": 7.427997486
 },
 {
   "name": "Oum el Bouaghi",
   "lat": 35.84999715,
   "lng": 7.149996522
 },
 {
   "name": "Timimoun",
   "lat": 29.23652163,
   "lng": 0.269998737
 },
 {
   "name": "Sidi bel Abbes",
   "lat": 35.19034426,
   "lng": -0.639971559
 },
 {
   "name": "Tlimcen",
   "lat": 34.89041424,
   "lng": -1.32000757
 },
 {
   "name": "Beni Ounif",
   "lat": 32.04926984,
   "lng": -1.251381268
 },
 {
   "name": "Abadla",
   "lat": 31.01708478,
   "lng": -2.733306317
 },
 {
   "name": "Sefra",
   "lat": 32.76041506,
   "lng": -0.579949383
 },
 {
   "name": "Skikda",
   "lat": 36.88042198,
   "lng": 6.899981647
 },
 {
   "name": "Djanet",
   "lat": 24.5529057,
   "lng": 9.482252969
 },
 {
   "name": "I-n-Amenas",
   "lat": 28.0503408,
   "lng": 9.550000772
 },
 {
   "name": "In Amguel",
   "lat": 23.69394004,
   "lng": 5.164738727
 },
 {
   "name": "El Bayadh",
   "lat": 33.6903583,
   "lng": 1.009953571
 },
 {
   "name": "El Oued",
   "lat": 33.37040367,
   "lng": 6.859984089
 },
 {
   "name": "Hassi Messaoud",
   "lat": 31.70234011,
   "lng": 6.054451862
 },
 {
   "name": "Chlef",
   "lat": 36.17041363,
   "lng": 1.319960489
 },
 {
   "name": "Mascara",
   "lat": 35.40040895,
   "lng": 0.14003251
 },
 {
   "name": "Mostaganem",
   "lat": 35.940376,
   "lng": 0.089983885
 },
 {
   "name": "Saida",
   "lat": 34.84039146,
   "lng": 0.14003251
 },
 {
   "name": "Tiarat",
   "lat": 35.38043601,
   "lng": 1.319960489
 },
 {
   "name": "Bejaia",
   "lat": 36.76037762,
   "lng": 5.070015827
 },
 {
   "name": "Blida",
   "lat": 36.4203467,
   "lng": 2.829997517
 },
 {
   "name": "Bouira",
   "lat": 36.38047833,
   "lng": 3.900009724
 },
 {
   "name": "Medea",
   "lat": 36.27040753,
   "lng": 2.770001179
 },
 {
   "name": "Souk Ahras",
   "lat": 36.29038047,
   "lng": 7.949995075
 },
 {
   "name": "Tebessa",
   "lat": 35.41043418,
   "lng": 8.120010537
 },
 {
   "name": "Adrar",
   "lat": 27.86999005,
   "lng": -0.289967083
 },
 {
   "name": "Reggane",
   "lat": 26.69998395,
   "lng": 0.166645873
 },
 {
   "name": "Bechar",
   "lat": 31.61110537,
   "lng": -2.230003704
 },
 {
   "name": "Tindouf",
   "lat": 27.67418805,
   "lng": -8.147782025
 },
 {
   "name": "Illizi",
   "lat": 26.48335634,
   "lng": 8.466604369
 },
 {
   "name": "Arak",
   "lat": 25.2799931,
   "lng": 3.749993041
 },
 {
   "name": "I-n-Salah",
   "lat": 27.21664492,
   "lng": 2.466608845
 },
 {
   "name": "El Golea",
   "lat": 30.56662132,
   "lng": 2.883327595
 },
 {
   "name": "Laghouat",
   "lat": 33.80998924,
   "lng": 2.880020303
 },
 {
   "name": "Touggourt",
   "lat": 33.0999809,
   "lng": 6.05998124
 },
 {
   "name": "Ouargla",
   "lat": 31.96997235,
   "lng": 5.340025186
 },
 {
   "name": "Biskra",
   "lat": 34.85997683,
   "lng": 5.73002722
 },
 {
   "name": "Djelfa",
   "lat": 34.67998781,
   "lng": 3.250023558
 },
 {
   "name": "Setif",
   "lat": 36.18002545,
   "lng": 5.399969847
 },
 {
   "name": "Batna",
   "lat": 35.56995933,
   "lng": 6.170000365
 },
 {
   "name": "Annaba",
   "lat": 36.92000612,
   "lng": 7.759980834
 },
 {
   "name": "Constantine",
   "lat": 36.35998863,
   "lng": 6.599948281
 },
 {
   "name": "Oran",
   "lat": 35.71000246,
   "lng": -0.61997278
 },
 {
   "name": "Tamanrasset",
   "lat": 22.78500327,
   "lng": 5.522804727
 },
 {
   "name": "Ghardaia",
   "lat": 32.48999229,
   "lng": 3.669997923
 },
 {
   "name": "Algiers",
   "lat": 36.7630648,
   "lng": 3.05055253
 },
 {
   "name": "Pago Pago",
   "lat": -14.2766105,
   "lng": -170.7066451
 },
 {
   "name": "Andorra",
   "lat": 42.50000144,
   "lng": 1.516485961
 },
 {
   "name": "Mucusso",
   "lat": -18.01953449,
   "lng": 21.42999914
 },
 {
   "name": "Lucapa",
   "lat": -8.419603659,
   "lng": 20.74001542
 },
 {
   "name": "Capenda-Camulemba",
   "lat": -9.4195943,
   "lng": 18.43002722
 },
 {
   "name": "Saurimo",
   "lat": -9.659579652,
   "lng": 20.39001094
 },
 {
   "name": "Muconda",
   "lat": -10.59962563,
   "lng": 21.31998002
 },
 {
   "name": "Cacolo",
   "lat": -10.14962726,
   "lng": 19.2600024
 },
 {
   "name": "Caxito",
   "lat": -8.579542217,
   "lng": 13.65998246
 },
 {
   "name": "Camabatela",
   "lat": -8.189591859,
   "lng": 15.37000728
 },
 {
   "name": "Ndalatando",
   "lat": -9.299549948,
   "lng": 14.90998368
 },
 {
   "name": "Quibala",
   "lat": -10.72959186,
   "lng": 14.97995357
 },
 {
   "name": "Calulo",
   "lat": -9.999610577,
   "lng": 14.90001013
 },
 {
   "name": "Waku Kungo",
   "lat": -11.35952757,
   "lng": 15.1199967
 },
 {
   "name": "Songo",
   "lat": -7.349591452,
   "lng": 14.84998734
 },
 {
   "name": "Mbanza-Congo",
   "lat": -6.269605694,
   "lng": 14.23999874
 },
 {
   "name": "Nzeto",
   "lat": -7.229598776,
   "lng": 12.86003129
 },
 {
   "name": "Soyo",
   "lat": -6.129614239,
   "lng": 12.36998368
 },
 {
   "name": "Cabinda",
   "lat": -5.55962319,
   "lng": 12.18999467
 },
 {
   "name": "Calucinga",
   "lat": -11.31958169,
   "lng": 16.19998246
 },
 {
   "name": "Camacupa",
   "lat": -12.01959064,
   "lng": 17.46998246
 },
 {
   "name": "Cubal",
   "lat": -13.03958006,
   "lng": 14.23999874
 },
 {
   "name": "Mavinga",
   "lat": -15.7895414,
   "lng": 20.36003861
 },
 {
   "name": "Cuito Caunavale",
   "lat": -15.15960569,
   "lng": 19.16998205
 },
 {
   "name": "Luiana",
   "lat": -17.36954832,
   "lng": 22.99998083
 },
 {
   "name": "Ondjiva",
   "lat": -17.06961831,
   "lng": 15.73003699
 },
 {
   "name": "Chitado",
   "lat": -17.31962889,
   "lng": 13.92001827
 },
 {
   "name": "Chibemba",
   "lat": -15.74959552,
   "lng": 14.0800085
 },
 {
   "name": "Chibia",
   "lat": -15.1896297,
   "lng": 13.69000647
 },
 {
   "name": "Quipungo",
   "lat": -14.82954832,
   "lng": 14.55000565
 },
 {
   "name": "Luau",
   "lat": -10.7095414,
   "lng": 22.23000199
 },
 {
   "name": "Cangamba",
   "lat": -13.69959145,
   "lng": 19.86001745
 },
 {
   "name": "Lumbala Nguimbo",
   "lat": -14.09961871,
   "lng": 21.44002437
 },
 {
   "name": "Cazombo",
   "lat": -11.88957273,
   "lng": 22.90003861
 },
 {
   "name": "Dundo",
   "lat": -7.380028871,
   "lng": 20.82998409
 },
 {
   "name": "Ambriz",
   "lat": -7.85498696,
   "lng": 13.12502803
 },
 {
   "name": "Dondo",
   "lat": -9.690017071,
   "lng": 14.43001298
 },
 {
   "name": "Sumbe",
   "lat": -11.21002765,
   "lng": 13.8499967
 },
 {
   "name": "Uige",
   "lat": -7.620014222,
   "lng": 15.04997514
 },
 {
   "name": "Kuito",
   "lat": -12.38003375,
   "lng": 16.93998897
 },
 {
   "name": "Lobito",
   "lat": -12.37000853,
   "lng": 13.54123002
 },
 {
   "name": "Xangongo",
   "lat": -16.74002602,
   "lng": 14.96998002
 },
 {
   "name": "Luena",
   "lat": -11.79004393,
   "lng": 19.90001501
 },
 {
   "name": "Tombua",
   "lat": -15.80003172,
   "lng": 11.85998897
 },
 {
   "name": "Malanje",
   "lat": -9.540000388,
   "lng": 16.34002559
 },
 {
   "name": "Benguela",
   "lat": -12.57826455,
   "lng": 13.40723303
 },
 {
   "name": "Lubango",
   "lat": -14.91000853,
   "lng": 13.49001868
 },
 {
   "name": "Namibe",
   "lat": -15.19004311,
   "lng": 12.16002234
 },
 {
   "name": "Menongue",
   "lat": -14.66661253,
   "lng": 17.69999426
 },
 {
   "name": "Huambo",
   "lat": -12.74998533,
   "lng": 15.76000932
 },
 {
   "name": "Luanda",
   "lat": -8.838286114,
   "lng": 13.23442704
 },
 {
   "name": "Artigas Base",
   "lat": -62.17388669,
   "lng": -58.86386407
 },
 {
   "name": "Capitan Arturo Prat Station",
   "lat": -62.49950682,
   "lng": -59.68331852
 },
 {
   "name": "Vicecomodoro Marambio Station",
   "lat": -64.23288939,
   "lng": -56.6500153
 },
 {
   "name": "Terra Nova Bay",
   "lat": -74.61919259,
   "lng": 164.2190271
 },
 {
   "name": "Rothera Station",
   "lat": -67.5647756,
   "lng": -68.12354055
 },
 {
   "name": "Palmer Station",
   "lat": -64.76241335,
   "lng": -64.0468756
 },
 {
   "name": "Teniente Rodolfo Marsh Station",
   "lat": -62.18274357,
   "lng": -58.90765233
 },
 {
   "name": "Teniente Jubany Station",
   "lat": -62.22414386,
   "lng": -58.65047599
 },
 {
   "name": "King Sejong Station",
   "lat": -62.2248534,
   "lng": -58.77159876
 },
 {
   "name": "Great Wall Station",
   "lat": -62.21631997,
   "lng": -58.9666956
 },
 {
   "name": "Escudero Station",
   "lat": -62.19496251,
   "lng": -58.95266582
 },
 {
   "name": "Elephant Island, South Shetland Islands",
   "lat": -61.99958901,
   "lng": -57.99998458
 },
 {
   "name": "Scott Base",
   "lat": -77.84693819,
   "lng": 166.7491023
 },
 {
   "name": "McMurdo Station",
   "lat": -77.73228239,
   "lng": 166.8694157
 },
 {
   "name": "Zhongshan Station",
   "lat": -69.43406299,
   "lng": 76.33929808
 },
 {
   "name": "Vostok",
   "lat": -78.46628416,
   "lng": 106.8000337
 },
 {
   "name": "Peter I Island",
   "lat": -68.83286701,
   "lng": 90.49999508
 },
 {
   "name": "Mirny Station",
   "lat": -66.57552952,
   "lng": 93.00628846
 },
 {
   "name": "Mawson Station",
   "lat": -67.61452032,
   "lng": 62.87500073
 },
 {
   "name": "Davis Station",
   "lat": -68.77767439,
   "lng": 78.14073509
 },
 {
   "name": "Concordia Research Station",
   "lat": -74.66630939,
   "lng": 124.1670357
 },
 {
   "name": "Casey Station",
   "lat": -66.28608614,
   "lng": 110.536214
 },
 {
   "name": "Amundsen–Scott South Pole Station",
   "lat": -89.98289386,
   "lng": 139.2669926
 },
 {
   "name": "Wasa Station",
   "lat": -73.0496122,
   "lng": -13.41671106
 },
 {
   "name": "Troll Station",
   "lat": -72.01629026,
   "lng": 2.533323119
 },
 {
   "name": "Svea Station",
   "lat": -74.58290363,
   "lng": -11.21669031
 },
 {
   "name": "Novolazarevskaya Station",
   "lat": -71.30123475,
   "lng": -11.8502129
 },
 {
   "name": "Neumayer",
   "lat": -70.89039668,
   "lng": -7.838438004
 },
 {
   "name": "Maitri Station",
   "lat": -70.7821796,
   "lng": 11.7304584
 },
 {
   "name": "Halley Station",
   "lat": -76.09226319,
   "lng": -26.4741567
 },
 {
   "name": "General Belgrano Station",
   "lat": -77.86632078,
   "lng": -34.61668319
 },
 {
   "name": "Doctor Sobral",
   "lat": -81.17908472,
   "lng": -40.50153152
 },
 {
   "name": "Aboa Station",
   "lat": -75.04959349,
   "lng": -13.41671106
 },
 {
   "name": "San Martín Station",
   "lat": -68.1163216,
   "lng": -67.0999976
 },
 {
   "name": "General Bernado O'Higgins Station",
   "lat": -63.32841823,
   "lng": -57.88959352
 },
 {
   "name": "Esperanza Station",
   "lat": -63.37532865,
   "lng": -57.02590151
 },
 {
   "name": "Orcadas Station",
   "lat": -60.7328963,
   "lng": -44.73330082
 },
 {
   "name": "Signy Island",
   "lat": -60.63130815,
   "lng": -45.60070332
 },
 {
   "name": "Dumont d'Urville Station",
   "lat": -66.77505091,
   "lng": 139.9636836
 },
 {
   "name": "Showa Station",
   "lat": -69.03039249,
   "lng": 39.7460831
 },
 {
   "name": "Saint John's",
   "lat": 17.11803652,
   "lng": -61.85003382
 },
 {
   "name": "28 de Noviembre",
   "lat": -51.65003986,
   "lng": -72.30001612
 },
 {
   "name": "Gobernador Gregores",
   "lat": -48.76659829,
   "lng": -70.25001205
 },
 {
   "name": "Comondante Luis Piedrabuena",
   "lat": -49.97454865,
   "lng": -68.90347273
 },
 {
   "name": "Paso Rio Mayo",
   "lat": -45.68337563,
   "lng": -70.26657434
 },
 {
   "name": "Alto Rio Sanguer",
   "lat": -45.03328611,
   "lng": -70.83328394
 },
 {
   "name": "El Maiten",
   "lat": -42.05000568,
   "lng": -71.16662276
 },
 {
   "name": "Puerto Madryn",
   "lat": -42.77001341,
   "lng": -65.04001998
 },
 {
   "name": "Trelew",
   "lat": -43.25003579,
   "lng": -65.3299506
 },
 {
   "name": "Las Heras",
   "lat": -32.82503904,
   "lng": -68.80167668
 },
 {
   "name": "San Martin",
   "lat": -33.06998533,
   "lng": -68.49001612
 },
 {
   "name": "Uspallata",
   "lat": -32.59311522,
   "lng": -69.34598454
 },
 {
   "name": "Cutral Co",
   "lat": -38.94001463,
   "lng": -69.24002202
 },
 {
   "name": "Punta Alta",
   "lat": -38.87996662,
   "lng": -62.0799681
 },
 {
   "name": "San Nicolas",
   "lat": -33.33002114,
   "lng": -60.24000289
 },
 {
   "name": "Campana",
   "lat": -34.15999632,
   "lng": -58.95997766
 },
 {
   "name": "Chacabuco",
   "lat": -34.65004393,
   "lng": -60.48998763
 },
 {
   "name": "Mercedes",
   "lat": -34.66001748,
   "lng": -59.44002588
 },
 {
   "name": "Lincoln",
   "lat": -34.88000405,
   "lng": -61.53994938
 },
 {
   "name": "Chivilcoy",
   "lat": -34.89995115,
   "lng": -60.03998926
 },
 {
   "name": "Veinticinco de Mayo",
   "lat": -35.42999632,
   "lng": -60.17998071
 },
 {
   "name": "Nueve de Julio",
   "lat": -35.44596434,
   "lng": -60.88998906
 },
 {
   "name": "Dolores",
   "lat": -36.33004474,
   "lng": -57.68997766
 },
 {
   "name": "Pedro Luro",
   "lat": -39.48334064,
   "lng": -62.68331629
 },
 {
   "name": "Tres Arroyos",
   "lat": -38.3699719,
   "lng": -60.26994938
 },
 {
   "name": "Coronel Suarez",
   "lat": -37.46661619,
   "lng": -61.9166189
 },
 {
   "name": "Balcarce",
   "lat": -37.83331216,
   "lng": -58.24999516
 },
 {
   "name": "25 de Mayo",
   "lat": -37.80003253,
   "lng": -67.68329533
 },
 {
   "name": "General Roca",
   "lat": -39.01995807,
   "lng": -67.60996647
 },
 {
   "name": "Comallo",
   "lat": -41.03332355,
   "lng": -70.26657434
 },
 {
   "name": "Ingeniero Jacobacci",
   "lat": -41.30002562,
   "lng": -69.58330855
 },
 {
   "name": "General Conesa",
   "lat": -40.10004718,
   "lng": -64.43328699
 },
 {
   "name": "Choele Choel",
   "lat": -39.26660968,
   "lng": -65.68331405
 },
 {
   "name": "San Francisco",
   "lat": -31.43003375,
   "lng": -62.08996749
 },
 {
   "name": "Alta Gracia",
   "lat": -31.65999388,
   "lng": -64.4299797
 },
 {
   "name": "Villa Maria",
   "lat": -32.41002562,
   "lng": -63.26002527
 },
 {
   "name": "Bell Ville",
   "lat": -32.60003986,
   "lng": -62.67995732
 },
 {
   "name": "Villa Rumipal",
   "lat": -32.18332111,
   "lng": -64.48328394
 },
 {
   "name": "Villa Carlos Paz",
   "lat": -31.42000853,
   "lng": -64.50000126
 },
 {
   "name": "Chumbicha",
   "lat": -28.86662433,
   "lng": -66.23330632
 },
 {
   "name": "Tinogasta",
   "lat": -28.06662148,
   "lng": -67.56658411
 },
 {
   "name": "Abra Pampa",
   "lat": -22.7166638,
   "lng": -65.6999797
 },
 {
   "name": "Humahuaca",
   "lat": -23.19999347,
   "lng": -65.34994938
 },
 {
   "name": "Susques",
   "lat": -23.41667275,
   "lng": -66.4833169
 },
 {
   "name": "Chepes",
   "lat": -31.34998696,
   "lng": -66.5999506
 },
 {
   "name": "Yacuiba",
   "lat": -22.03003904,
   "lng": -63.69999841
 },
 {
   "name": "Tartagal",
   "lat": -22.55000731,
   "lng": -63.81001754
 },
 {
   "name": "Joaquin V. Gonzalez",
   "lat": -25.08334105,
   "lng": -64.18335392
 },
 {
   "name": "General Guemes",
   "lat": -24.6666223,
   "lng": -65.04996769
 },
 {
   "name": "Trancas",
   "lat": -26.21665688,
   "lng": -65.28331262
 },
 {
   "name": "Presidencia Roque Saenz Pena",
   "lat": -26.7900069,
   "lng": -60.45001591
 },
 {
   "name": "Pampa del Infierno",
   "lat": -26.51658689,
   "lng": -61.16658716
 },
 {
   "name": "Villa Angela",
   "lat": -27.58329181,
   "lng": -60.7166663
 },
 {
   "name": "Ingeniero Guillermo N. Juarez",
   "lat": -23.90000242,
   "lng": -61.84998214
 },
 {
   "name": "Comandante Fontana",
   "lat": -25.33329995,
   "lng": -59.68331852
 },
 {
   "name": "Doctor Pedro P. Pena",
   "lat": -22.47998574,
   "lng": -62.29998051
 },
 {
   "name": "San Lorenzo",
   "lat": -28.12000324,
   "lng": -58.76998926
 },
 {
   "name": "Corrientes",
   "lat": -27.48996417,
   "lng": -58.80998682
 },
 {
   "name": "Concepcion del Uruguay",
   "lat": -32.47999551,
   "lng": -58.23999577
 },
 {
   "name": "Victoria",
   "lat": -32.61001341,
   "lng": -60.17998071
 },
 {
   "name": "Gualeguay",
   "lat": -33.15003213,
   "lng": -59.34000615
 },
 {
   "name": "Parana",
   "lat": -31.73332273,
   "lng": -60.53334416
 },
 {
   "name": "Villa Constitucion",
   "lat": -33.23002724,
   "lng": -60.35002202
 },
 {
   "name": "Rafaela",
   "lat": -31.25004474,
   "lng": -61.49997766
 },
 {
   "name": "Eldorado",
   "lat": -26.20001707,
   "lng": -54.59998539
 },
 {
   "name": "Rodeo",
   "lat": -30.21558592,
   "lng": -69.1399506
 },
 {
   "name": "Las Plumas",
   "lat": -43.41627887,
   "lng": -67.24998845
 },
 {
   "name": "Gastre",
   "lat": -42.28296303,
   "lng": -69.23330408
 },
 {
   "name": "Telsen",
   "lat": -42.39959674,
   "lng": -66.95000676
 },
 {
   "name": "Malargue",
   "lat": -35.46611815,
   "lng": -69.58330855
 },
 {
   "name": "Tunuyan",
   "lat": -33.56618244,
   "lng": -69.01667647
 },
 {
   "name": "La Paz",
   "lat": -33.46613686,
   "lng": -67.54999597
 },
 {
   "name": "Chos Malal",
   "lat": -37.38295205,
   "lng": -70.26657434
 },
 {
   "name": "Las Lajas",
   "lat": -38.51626788,
   "lng": -70.36659408
 },
 {
   "name": "Zarate",
   "lat": -34.08956134,
   "lng": -59.04002446
 },
 {
   "name": "Carhue",
   "lat": -37.1828609,
   "lng": -62.73331323
 },
 {
   "name": "Darregueira",
   "lat": -37.69957355,
   "lng": -63.16659428
 },
 {
   "name": "Juarez",
   "lat": -37.66551878,
   "lng": -59.80002975
 },
 {
   "name": "Mar de Ajo",
   "lat": -36.71622272,
   "lng": -56.67660283
 },
 {
   "name": "Lobos",
   "lat": -35.184895,
   "lng": -59.09467228
 },
 {
   "name": "Chascomus",
   "lat": -35.56621539,
   "lng": -58.01662439
 },
 {
   "name": "Junin",
   "lat": -34.58456989,
   "lng": -60.95887374
 },
 {
   "name": "La Plata",
   "lat": -34.90961465,
   "lng": -57.95996118
 },
 {
   "name": "Pergamino",
   "lat": -33.89959878,
   "lng": -60.56998275
 },
 {
   "name": "Lujan",
   "lat": -34.57960895,
   "lng": -59.10999435
 },
 {
   "name": "Azul",
   "lat": -36.7796297,
   "lng": -59.86999964
 },
 {
   "name": "Villalonga",
   "lat": -39.88285114,
   "lng": -62.58332239
 },
 {
   "name": "Victorica",
   "lat": -36.21625324,
   "lng": -65.45002079
 },
 {
   "name": "General Pico",
   "lat": -35.65959471,
   "lng": -63.77001998
 },
 {
   "name": "San Antonio Oeste",
   "lat": -40.73287677,
   "lng": -64.93328231
 },
 {
   "name": "Sierra Colorado",
   "lat": -40.58286009,
   "lng": -67.79998071
 },
 {
   "name": "Mercedes",
   "lat": -33.68958576,
   "lng": -65.4699679
 },
 {
   "name": "Rio Tercero",
   "lat": -32.1796004,
   "lng": -64.12002446
 },
 {
   "name": "Belen",
   "lat": -27.64959267,
   "lng": -67.03328333
 },
 {
   "name": "Rinconada",
   "lat": -22.43290851,
   "lng": -66.16659204
 },
 {
   "name": "San Pedro",
   "lat": -24.21962116,
   "lng": -64.87000452
 },
 {
   "name": "Libertador General San Martin",
   "lat": -23.81954222,
   "lng": -64.78998356
 },
 {
   "name": "Chilecito",
   "lat": -29.16552081,
   "lng": -67.49999903
 },
 {
   "name": "Chamical",
   "lat": -30.34958291,
   "lng": -66.3166604
 },
 {
   "name": "Los Blancos",
   "lat": -23.59960732,
   "lng": -62.60003972
 },
 {
   "name": "Cafayate",
   "lat": -26.08291828,
   "lng": -65.96660425
 },
 {
   "name": "Cerrillos",
   "lat": -24.89963133,
   "lng": -65.48330042
 },
 {
   "name": "San Antonio de los Cobres",
   "lat": -24.18293089,
   "lng": -66.35001754
 },
 {
   "name": "Anatuya",
   "lat": -28.46613198,
   "lng": -62.83330713
 },
 {
   "name": "Frias",
   "lat": -28.64958331,
   "lng": -65.14998743
 },
 {
   "name": "Monte Quemado",
   "lat": -25.79962807,
   "lng": -62.86658675
 },
 {
   "name": "Juan Jose Castelli",
   "lat": -25.9495414,
   "lng": -60.61664657
 },
 {
   "name": "Charata",
   "lat": -27.21628579,
   "lng": -61.19999597
 },
 {
   "name": "Las Lomitas",
   "lat": -24.69959186,
   "lng": -60.60000676
 },
 {
   "name": "Mercedes",
   "lat": -29.1795768,
   "lng": -58.0799797
 },
 {
   "name": "Concordia",
   "lat": -31.38957111,
   "lng": -58.02998275
 },
 {
   "name": "Sunchales",
   "lat": -30.93290648,
   "lng": -61.56661442
 },
 {
   "name": "San Justo",
   "lat": -30.78288979,
   "lng": -60.58328943
 },
 {
   "name": "Vera",
   "lat": -29.4661743,
   "lng": -60.21659347
 },
 {
   "name": "Reconquista",
   "lat": -29.13952757,
   "lng": -59.65001306
 },
 {
   "name": "Venado Tuerto",
   "lat": -33.74958209,
   "lng": -61.97000065
 },
 {
   "name": "Esquel",
   "lat": -42.90003131,
   "lng": -71.31661361
 },
 {
   "name": "Zapala",
   "lat": -38.90001707,
   "lng": -70.06666406
 },
 {
   "name": "Olavarria",
   "lat": -36.90003579,
   "lng": -60.3299974
 },
 {
   "name": "Tandil",
   "lat": -37.32001015,
   "lng": -59.15004358
 },
 {
   "name": "Viedma",
   "lat": -40.79995278,
   "lng": -63.0000153
 },
 {
   "name": "San Luis",
   "lat": -33.29999713,
   "lng": -66.35001754
 },
 {
   "name": "Rio Cuarto",
   "lat": -33.13003335,
   "lng": -64.34998458
 },
 {
   "name": "San Salvador de Jujuy",
   "lat": -24.1833443,
   "lng": -65.30002995
 },
 {
   "name": "San Ramon de la Nueva Oran",
   "lat": -23.13999713,
   "lng": -64.32001225
 },
 {
   "name": "Goya",
   "lat": -29.13999266,
   "lng": -59.26998458
 },
 {
   "name": "Puerto San Julian",
   "lat": -49.30000242,
   "lng": -67.71665247
 },
 {
   "name": "Perito Moreno",
   "lat": -46.60001219,
   "lng": -70.93335535
 },
 {
   "name": "Rio Grande",
   "lat": -53.79144552,
   "lng": -67.6989952
 },
 {
   "name": "Ushuaia",
   "lat": -54.79000324,
   "lng": -68.31000126
 },
 {
   "name": "Sarmiento",
   "lat": -45.60002155,
   "lng": -69.08331323
 },
 {
   "name": "San Rafael",
   "lat": -34.60002114,
   "lng": -68.33333317
 },
 {
   "name": "Necochea",
   "lat": -38.55998615,
   "lng": -58.74999048
 },
 {
   "name": "Rio Colorado",
   "lat": -38.96657632,
   "lng": -64.08328251
 },
 {
   "name": "Catamarca",
   "lat": -28.47000771,
   "lng": -65.78000065
 },
 {
   "name": "La Rioja",
   "lat": -29.40995034,
   "lng": -66.84996118
 },
 {
   "name": "Santiago del Estero",
   "lat": -27.78333128,
   "lng": -64.26665633
 },
 {
   "name": "Resistencia",
   "lat": -27.45999184,
   "lng": -58.99002751
 },
 {
   "name": "Gualeguaychu",
   "lat": -33.02001422,
   "lng": -58.52000452
 },
 {
   "name": "El Calafate",
   "lat": -50.33332436,
   "lng": -72.30001612
 },
 {
   "name": "San Juan",
   "lat": -31.55002643,
   "lng": -68.51998845
 },
 {
   "name": "Rawson",
   "lat": -43.3000069,
   "lng": -65.09999048
 },
 {
   "name": "Neuquen",
   "lat": -38.95003986,
   "lng": -68.05999068
 },
 {
   "name": "Santa Rosa",
   "lat": -36.6200012,
   "lng": -64.29998763
 },
 {
   "name": "San Carlos de Bariloche",
   "lat": -41.14995726,
   "lng": -71.29999964
 },
 {
   "name": "Salta",
   "lat": -24.78335936,
   "lng": -65.41663782
 },
 {
   "name": "San Miguel de Tucuman",
   "lat": -26.81600014,
   "lng": -65.21662419
 },
 {
   "name": "Formosa",
   "lat": -26.17283527,
   "lng": -58.1828158
 },
 {
   "name": "Santa Fe",
   "lat": -31.62387205,
   "lng": -60.69000126
 },
 {
   "name": "Rosario",
   "lat": -32.95112954,
   "lng": -60.66630762
 },
 {
   "name": "Puerto Deseado",
   "lat": -47.75001951,
   "lng": -65.89996749
 },
 {
   "name": "Rio Gallegos",
   "lat": -51.63329669,
   "lng": -69.21658675
 },
 {
   "name": "Comodoro Rivadavia",
   "lat": -45.87003091,
   "lng": -67.49999903
 },
 {
   "name": "Mendoza",
   "lat": -32.88333006,
   "lng": -68.81661117
 },
 {
   "name": "Bahia Blanca",
   "lat": -38.74002684,
   "lng": -62.2650214
 },
 {
   "name": "Mar del Plata",
   "lat": -38.00002033,
   "lng": -57.57998438
 },
 {
   "name": "Cordoba",
   "lat": -31.39995807,
   "lng": -64.18229456
 },
 {
   "name": "Posadas",
   "lat": -27.3578321,
   "lng": -55.88510735
 },
 {
   "name": "Buenos Aires",
   "lat": -34.60250161,
   "lng": -58.39753137
 },
 {
   "name": "Ashtarak",
   "lat": 40.3016667,
   "lng": 44.3591667
 },
 {
   "name": "Ijevan",
   "lat": 40.8755556,
   "lng": 45.1491667
 },
 {
   "name": "Artashat",
   "lat": 39.9538889,
   "lng": 44.5505556
 },
 {
   "name": "Gavarr",
   "lat": 40.3588889,
   "lng": 45.1266667
 },
 {
   "name": "Yeghegnadzor",
   "lat": 39.7611111,
   "lng": 45.3333333
 },
 {
   "name": "Gyumri",
   "lat": 40.78943402,
   "lng": 43.84749385
 },
 {
   "name": "Vanadzor",
   "lat": 40.81276593,
   "lng": 44.48828162
 },
 {
   "name": "Yerevan",
   "lat": 40.18115074,
   "lng": 44.51355139
 },
 {
   "name": "Oranjestad",
   "lat": 12.53038373,
   "lng": -70.02899195
 },
 {
   "name": "Central Coast",
   "lat": -33.42004148,
   "lng": 151.3000048
 },
 {
   "name": "Sunshine Coast",
   "lat": -26.67998777,
   "lng": 153.0500272
 },
 {
   "name": "Bourke",
   "lat": -30.1,
   "lng": 145.9333333
 },
 {
   "name": "Pine Creek",
   "lat": -13.81617348,
   "lng": 131.816698
 },
 {
   "name": "Adelaide River",
   "lat": -13.2495414,
   "lng": 131.0999975
 },
 {
   "name": "McMinns Lagoon",
   "lat": -12.53289264,
   "lng": 131.0500264
 },
 {
   "name": "Newcastle Waters",
   "lat": -17.55279295,
   "lng": 133.4672432
 },
 {
   "name": "Ravensthorpe",
   "lat": -33.58287392,
   "lng": 120.0333345
 },
 {
   "name": "Wagin",
   "lat": -33.29958372,
   "lng": 117.3499841
 },
 {
   "name": "Roebourne",
   "lat": -20.7829317,
   "lng": 117.1333048
 },
 {
   "name": "Pannawonica",
   "lat": -21.63657469,
   "lng": 116.3250337
 },
 {
   "name": "Tom Price",
   "lat": -22.69346108,
   "lng": 117.7930578
 },
 {
   "name": "Kalbarri",
   "lat": -27.66618081,
   "lng": 114.1666642
 },
 {
   "name": "Mount Magnet",
   "lat": -28.06620807,
   "lng": 117.8166739
 },
 {
   "name": "Morawa",
   "lat": -29.21626707,
   "lng": 116.0000406
 },
 {
   "name": "Port Denison",
   "lat": -29.28282632,
   "lng": 114.9166442
 },
 {
   "name": "Merredin",
   "lat": -31.48284707,
   "lng": 118.2666723
 },
 {
   "name": "Mount Barker",
   "lat": -34.632784,
   "lng": 117.6666056
 },
 {
   "name": "Katanning",
   "lat": -33.69955931,
   "lng": 117.5500752
 },
 {
   "name": "Narrogin",
   "lat": -32.93288776,
   "lng": 117.1666361
 },
 {
   "name": "Gingin",
   "lat": -31.34957355,
   "lng": 115.9000468
 },
 {
   "name": "Bunbury",
   "lat": -33.34428384,
   "lng": 115.6502429
 },
 {
   "name": "Kwinana",
   "lat": -32.23939004,
   "lng": 115.7702356
 },
 {
   "name": "Southern Cross",
   "lat": -31.216145,
   "lng": 119.3166857
 },
 {
   "name": "Kaltukatjara",
   "lat": -25.78841429,
   "lng": 128.9973352
 },
 {
   "name": "Queanbeyan",
   "lat": -35.3546004,
   "lng": 149.2113468
 },
 {
   "name": "Tweed Heads",
   "lat": -28.1825834,
   "lng": 153.5466377
 },
 {
   "name": "Ivanhoe",
   "lat": -32.89960814,
   "lng": 144.3000187
 },
 {
   "name": "Wilcannia",
   "lat": -31.56620115,
   "lng": 143.3833304
 },
 {
   "name": "Merimbula",
   "lat": -36.89962238,
   "lng": 149.9000386
 },
 {
   "name": "Echuca",
   "lat": -36.12959186,
   "lng": 144.750017
 },
 {
   "name": "Deniliquin",
   "lat": -35.5295768,
   "lng": 144.9500048
 },
 {
   "name": "Nowra",
   "lat": -34.88284625,
   "lng": 150.6000476
 },
 {
   "name": "Ulladulla",
   "lat": -35.34953611,
   "lng": 150.4700297
 },
 {
   "name": "Batemans Bay",
   "lat": -35.68961871,
   "lng": 150.2073067
 },
 {
   "name": "Cooma",
   "lat": -36.23955931,
   "lng": 149.1200345
 },
 {
   "name": "Tumut",
   "lat": -35.30959023,
   "lng": 148.2200378
 },
 {
   "name": "Leeton",
   "lat": -34.54493406,
   "lng": 146.3973067
 },
 {
   "name": "Young",
   "lat": -34.30959959,
   "lng": 148.2900077
 },
 {
   "name": "Cowra",
   "lat": -33.82962889,
   "lng": 148.6800097
 },
 {
   "name": "Forbes",
   "lat": -33.38960407,
   "lng": 148.0199983
 },
 {
   "name": "Goulburn",
   "lat": -34.74957273,
   "lng": 149.7101794
 },
 {
   "name": "Kiama",
   "lat": -34.70957518,
   "lng": 150.8400329
 },
 {
   "name": "Katoomba",
   "lat": -33.70694904,
   "lng": 150.320013
 },
 {
   "name": "Richmond",
   "lat": -33.59951373,
   "lng": 150.7399873
 },
 {
   "name": "Lithgow",
   "lat": -33.49610919,
   "lng": 150.152788
 },
 {
   "name": "Parkes",
   "lat": -33.12956826,
   "lng": 148.170015
 },
 {
   "name": "Bathurst",
   "lat": -33.41962807,
   "lng": 149.5700329
 },
 {
   "name": "Maitland",
   "lat": -32.72096271,
   "lng": 151.555028
 },
 {
   "name": "Singleton",
   "lat": -32.56949909,
   "lng": 151.1600134
 },
 {
   "name": "Mudgee",
   "lat": -32.58960122,
   "lng": 149.5801098
 },
 {
   "name": "Muswellbrook",
   "lat": -32.26956907,
   "lng": 150.890004
 },
 {
   "name": "Taree",
   "lat": -31.89760211,
   "lng": 152.4618461
 },
 {
   "name": "Kempsey",
   "lat": -31.08736733,
   "lng": 152.8220308
 },
 {
   "name": "Gunnedah",
   "lat": -30.9870117,
   "lng": 150.2622904
 },
 {
   "name": "Coffs Harbour",
   "lat": -30.3070532,
   "lng": 153.1122973
 },
 {
   "name": "Narrabri",
   "lat": -30.33190957,
   "lng": 149.7874357
 },
 {
   "name": "Inverell",
   "lat": -29.7667761,
   "lng": 151.1125744
 },
 {
   "name": "Yamba",
   "lat": -29.42299136,
   "lng": 153.353312
 },
 {
   "name": "Ballina",
   "lat": -28.86135333,
   "lng": 153.5679801
 },
 {
   "name": "Wagga Wagga",
   "lat": -35.12215981,
   "lng": 147.3399882
 },
 {
   "name": "Scone",
   "lat": -32.07960651,
   "lng": 150.8501098
 },
 {
   "name": "Byron Bay",
   "lat": -28.65650796,
   "lng": 153.6128869
 },
 {
   "name": "Berri",
   "lat": -34.28293455,
   "lng": 140.6000378
 },
 {
   "name": "Peterborough",
   "lat": -32.96616738,
   "lng": 138.8333239
 },
 {
   "name": "Wallaroo",
   "lat": -33.9328784,
   "lng": 137.6332938
 },
 {
   "name": "Clare",
   "lat": -33.8328845,
   "lng": 138.6000048
 },
 {
   "name": "Meningie",
   "lat": -35.69954059,
   "lng": 139.3333451
 },
 {
   "name": "Kingston South East",
   "lat": -36.83280475,
   "lng": 139.8500577
 },
 {
   "name": "Bordertown",
   "lat": -36.31619546,
   "lng": 140.7666426
 },
 {
   "name": "Penola",
   "lat": -37.38295205,
   "lng": 140.8166654
 },
 {
   "name": "Kingoonya",
   "lat": -30.89957518,
   "lng": 135.2999996
 },
 {
   "name": "Kimba",
   "lat": -33.14961871,
   "lng": 136.4333671
 },
 {
   "name": "Streaky Bay",
   "lat": -32.81187176,
   "lng": 134.2149296
 },
 {
   "name": "Cowell",
   "lat": -33.68286782,
   "lng": 136.9166451
 },
 {
   "name": "Tumby Bay",
   "lat": -34.38292845,
   "lng": 136.0833109
 },
 {
   "name": "Andamooka",
   "lat": -30.43097329,
   "lng": 137.1655704
 },
 {
   "name": "Woomera",
   "lat": -31.14958576,
   "lng": 136.8000114
 },
 {
   "name": "Port Pirie",
   "lat": -33.19106321,
   "lng": 137.9900162
 },
 {
   "name": "Gawler",
   "lat": -34.60735919,
   "lng": 138.7263537
 },
 {
   "name": "Murray Bridge",
   "lat": -35.12960122,
   "lng": 139.2600162
 },
 {
   "name": "Victor Harbor",
   "lat": -35.55960081,
   "lng": 138.6173164
 },
 {
   "name": "Hamilton",
   "lat": -37.73119953,
   "lng": 142.0234135
 },
 {
   "name": "Ouyen",
   "lat": -35.06619424,
   "lng": 142.3166772
 },
 {
   "name": "Colac",
   "lat": -38.33953449,
   "lng": 143.5800109
 },
 {
   "name": "Stawell",
   "lat": -37.05961261,
   "lng": 142.7600093
 },
 {
   "name": "Horsham",
   "lat": -36.70960814,
   "lng": 142.1900183
 },
 {
   "name": "Ararat",
   "lat": -37.27954751,
   "lng": 142.9099743
 },
 {
   "name": "Maryborough",
   "lat": -37.04958738,
   "lng": 143.729976
 },
 {
   "name": "Bairnsdale",
   "lat": -37.82959145,
   "lng": 147.6099975
 },
 {
   "name": "Sale",
   "lat": -38.10957436,
   "lng": 147.0600052
 },
 {
   "name": "Traralgon",
   "lat": -38.19959471,
   "lng": 146.5300118
 },
 {
   "name": "Wonthaggi",
   "lat": -38.60949217,
   "lng": 145.5900175
 },
 {
   "name": "Cranbourne",
   "lat": -38.09960081,
   "lng": 145.2833695
 },
 {
   "name": "Ballarat",
   "lat": -37.55958209,
   "lng": 143.8400468
 },
 {
   "name": "Melton",
   "lat": -37.68954832,
   "lng": 144.570028
 },
 {
   "name": "Seymour",
   "lat": -37.03423948,
   "lng": 145.1273067
 },
 {
   "name": "Shepparton",
   "lat": -36.37458982,
   "lng": 145.3913732
 },
 {
   "name": "Cobram",
   "lat": -35.91963051,
   "lng": 145.6500138
 },
 {
   "name": "Swan Hill",
   "lat": -35.33961424,
   "lng": 143.5400134
 },
 {
   "name": "Sunbury",
   "lat": -37.56960732,
   "lng": 144.7100195
 },
 {
   "name": "Proserpine",
   "lat": -20.41623574,
   "lng": 148.5834781
 },
 {
   "name": "Theodore",
   "lat": -24.94949909,
   "lng": 150.0833349
 },
 {
   "name": "Eidsvold",
   "lat": -25.36621784,
   "lng": 151.1333483
 },
 {
   "name": "Barcaldine",
   "lat": -23.56617267,
   "lng": 145.2833695
 },
 {
   "name": "Winton",
   "lat": -22.39962889,
   "lng": 143.0332743
 },
 {
   "name": "Longreach",
   "lat": -23.44959064,
   "lng": 144.2500476
 },
 {
   "name": "Caboolture",
   "lat": -27.08296059,
   "lng": 152.9499816
 },
 {
   "name": "Warwick",
   "lat": -28.22924721,
   "lng": 152.0203226
 },
 {
   "name": "Kingaroy",
   "lat": -26.53896279,
   "lng": 151.840592
 },
 {
   "name": "Dalby",
   "lat": -27.19385822,
   "lng": 151.2657434
 },
 {
   "name": "Bongaree",
   "lat": -27.07872313,
   "lng": 153.1508996
 },
 {
   "name": "Gympie",
   "lat": -26.18859658,
   "lng": 152.6709289
 },
 {
   "name": "Ingham",
   "lat": -18.64957355,
   "lng": 146.1666231
 },
 {
   "name": "Birdsville",
   "lat": -25.89962197,
   "lng": 139.3666247
 },
 {
   "name": "Bedourie",
   "lat": -24.34958738,
   "lng": 139.4666186
 },
 {
   "name": "Boulia",
   "lat": -22.89959837,
   "lng": 139.9000288
 },
 {
   "name": "Richmond",
   "lat": -20.71626911,
   "lng": 143.1333199
 },
 {
   "name": "Burketown",
   "lat": -17.71609048,
   "lng": 139.5666125
 },
 {
   "name": "Hervey Bay",
   "lat": -25.28870319,
   "lng": 152.8409444
 },
 {
   "name": "Biloela",
   "lat": -24.39356403,
   "lng": 150.4960746
 },
 {
   "name": "Yeppoon",
   "lat": -23.13291746,
   "lng": 150.7567305
 },
 {
   "name": "Emerald",
   "lat": -23.51222247,
   "lng": 148.1673278
 },
 {
   "name": "Moranbah",
   "lat": -22.00156533,
   "lng": 148.0380334
 },
 {
   "name": "Charters Towers",
   "lat": -20.08090737,
   "lng": 146.2587105
 },
 {
   "name": "Ayr",
   "lat": -19.57024087,
   "lng": 147.3994677
 },
 {
   "name": "Atherton",
   "lat": -17.27027789,
   "lng": 145.469353
 },
 {
   "name": "Port Douglas",
   "lat": -16.48458812,
   "lng": 145.4587219
 },
 {
   "name": "Smithton",
   "lat": -40.83292234,
   "lng": 145.1166613
 },
 {
   "name": "Scottsdale",
   "lat": -41.14949217,
   "lng": 147.5166699
 },
 {
   "name": "Bicheno",
   "lat": -41.87838825,
   "lng": 148.2886124
 },
 {
   "name": "Oatlands",
   "lat": -42.29960285,
   "lng": 147.3666015
 },
 {
   "name": "Queenstown",
   "lat": -42.08292356,
   "lng": 145.5500199
 },
 {
   "name": "Kingston",
   "lat": -42.99113686,
   "lng": 147.3084139
 },
 {
   "name": "Tennant Creek",
   "lat": -19.65002928,
   "lng": 134.200015
 },
 {
   "name": "Yulara",
   "lat": -25.24054075,
   "lng": 130.9888932
 },
 {
   "name": "Erldunda",
   "lat": -25.23330605,
   "lng": 133.1999727
 },
 {
   "name": "Norseman",
   "lat": -32.20001259,
   "lng": 121.7666137
 },
 {
   "name": "Halls Creek",
   "lat": -18.26670286,
   "lng": 127.7667126
 },
 {
   "name": "Kununurra",
   "lat": -15.76659707,
   "lng": 128.7333203
 },
 {
   "name": "Derby",
   "lat": -17.29999184,
   "lng": 123.9666345
 },
 {
   "name": "Onslow",
   "lat": -21.65759354,
   "lng": 115.0962959
 },
 {
   "name": "Exmouth",
   "lat": -21.93109987,
   "lng": 114.1233469
 },
 {
   "name": "Carnarvon",
   "lat": -24.89983803,
   "lng": 113.6501066
 },
 {
   "name": "Newman",
   "lat": -23.36659829,
   "lng": 119.7333011
 },
 {
   "name": "Meekatharra",
   "lat": -26.59999266,
   "lng": 118.4832999
 },
 {
   "name": "Three Springs",
   "lat": -29.53330198,
   "lng": 115.7499784
 },
 {
   "name": "Manjimup",
   "lat": -34.23332518,
   "lng": 116.1500057
 },
 {
   "name": "Northam",
   "lat": -31.65658323,
   "lng": 116.6533858
 },
 {
   "name": "Esperance",
   "lat": -33.857307,
   "lng": 121.8888973
 },
 {
   "name": "Leonara",
   "lat": -28.88150714,
   "lng": 121.3280358
 },
 {
   "name": "Laverton",
   "lat": -28.62700071,
   "lng": 122.4040425
 },
 {
   "name": "Wyndham",
   "lat": -15.37395953,
   "lng": 128.3600614
 },
 {
   "name": "Albury",
   "lat": -36.06003538,
   "lng": 146.9200138
 },
 {
   "name": "Forster-Tuncurry",
   "lat": -32.19313963,
   "lng": 152.5266483
 },
 {
   "name": "Port Macquarie",
   "lat": -31.44501992,
   "lng": 152.9186657
 },
 {
   "name": "Tamworth",
   "lat": -31.10261188,
   "lng": 150.9171342
 },
 {
   "name": "Grafton",
   "lat": -29.71199909,
   "lng": 152.9376827
 },
 {
   "name": "Moree",
   "lat": -29.469895,
   "lng": 149.8300687
 },
 {
   "name": "Goondiwindi",
   "lat": -28.55480874,
   "lng": 150.325284
 },
 {
   "name": "Lismore",
   "lat": -28.81665322,
   "lng": 153.2931132
 },
 {
   "name": "Wollongong",
   "lat": -34.41538125,
   "lng": 150.890004
 },
 {
   "name": "Ceduna",
   "lat": -32.09913464,
   "lng": 133.6622674
 },
 {
   "name": "Mount Gambier",
   "lat": -37.83134845,
   "lng": 140.7650406
 },
 {
   "name": "Port Augusta",
   "lat": -32.49002073,
   "lng": 137.7700297
 },
 {
   "name": "Warrnambool",
   "lat": -38.37999713,
   "lng": 142.4700012
 },
 {
   "name": "Mildura",
   "lat": -34.18500771,
   "lng": 142.1513643
 },
 {
   "name": "Geelong",
   "lat": -38.16749505,
   "lng": 144.3956335
 },
 {
   "name": "Camooweal",
   "lat": -19.91673134,
   "lng": 138.1166752
 },
 {
   "name": "Quilpie",
   "lat": -26.61663247,
   "lng": 144.2500476
 },
 {
   "name": "Charleville",
   "lat": -26.40000486,
   "lng": 146.2500288
 },
 {
   "name": "Hughenden",
   "lat": -20.85000771,
   "lng": 144.2000248
 },
 {
   "name": "Caloundra",
   "lat": -26.80003213,
   "lng": 153.1333296
 },
 {
   "name": "Roma",
   "lat": -26.55937498,
   "lng": 148.7907006
 },
 {
   "name": "Toowoomba",
   "lat": -27.56453327,
   "lng": 151.9555204
 },
 {
   "name": "Georgetown",
   "lat": -18.30003416,
   "lng": 143.5332955
 },
 {
   "name": "Thargomindah",
   "lat": -27.99995888,
   "lng": 143.816689
 },
 {
   "name": "Weipa",
   "lat": -12.66663125,
   "lng": 141.8666272
 },
 {
   "name": "Karumba",
   "lat": -17.48333982,
   "lng": 140.8334086
 },
 {
   "name": "Cloncurry",
   "lat": -20.69999103,
   "lng": 140.4999922
 },
 {
   "name": "Maryborough",
   "lat": -25.54910073,
   "lng": 152.7209
 },
 {
   "name": "Bundaberg",
   "lat": -24.87906411,
   "lng": 152.3508968
 },
 {
   "name": "Gladstone",
   "lat": -23.8533386,
   "lng": 151.2467264
 },
 {
   "name": "Bowen",
   "lat": -20.00132566,
   "lng": 148.208669
 },
 {
   "name": "Innisfail",
   "lat": -17.53134723,
   "lng": 146.0386722
 },
 {
   "name": "Mackay",
   "lat": -21.14389158,
   "lng": 149.1500069
 },
 {
   "name": "Burnie",
   "lat": -41.06660317,
   "lng": 145.9166642
 },
 {
   "name": "Launceston",
   "lat": -41.44983559,
   "lng": 147.1301818
 },
 {
   "name": "Katherine",
   "lat": -14.46662474,
   "lng": 132.266593
 },
 {
   "name": "Busselton",
   "lat": -33.65640949,
   "lng": 115.3486592
 },
 {
   "name": "Mandurah",
   "lat": -32.52348259,
   "lng": 115.7470567
 },
 {
   "name": "Broome",
   "lat": -17.96177069,
   "lng": 122.2307681
 },
 {
   "name": "Kalgoorlie",
   "lat": -30.73539915,
   "lng": 121.4600175
 },
 {
   "name": "Albany",
   "lat": -35.0169466,
   "lng": 117.8916048
 },
 {
   "name": "Port Hedland",
   "lat": -20.31040241,
   "lng": 118.6060315
 },
 {
   "name": "Karratha",
   "lat": -20.73037677,
   "lng": 116.8700134
 },
 {
   "name": "Geraldton",
   "lat": -28.76663043,
   "lng": 114.5999711
 },
 {
   "name": "Griffith",
   "lat": -34.29001422,
   "lng": 146.0400158
 },
 {
   "name": "Orange",
   "lat": -33.27999835,
   "lng": 149.0999841
 },
 {
   "name": "Dubbo",
   "lat": -32.25995726,
   "lng": 148.5973274
 },
 {
   "name": "Armidale",
   "lat": -30.51231199,
   "lng": 151.667476
 },
 {
   "name": "Broken Hill",
   "lat": -31.94995034,
   "lng": 141.4331136
 },
 {
   "name": "Port Lincoln",
   "lat": -34.73324298,
   "lng": 135.86658
 },
 {
   "name": "Whyalla",
   "lat": -33.02502684,
   "lng": 137.5614119
 },
 {
   "name": "Portland",
   "lat": -38.33999957,
   "lng": 141.5900032
 },
 {
   "name": "Bendigo",
   "lat": -36.75999266,
   "lng": 144.2800199
 },
 {
   "name": "Wangaratta",
   "lat": -36.36001707,
   "lng": 146.3
 },
 {
   "name": "Windorah",
   "lat": -25.43324217,
   "lng": 142.6501969
 },
 {
   "name": "Mount Isa",
   "lat": -20.72386554,
   "lng": 139.490028
 },
 {
   "name": "Rockhampton",
   "lat": -23.36391111,
   "lng": 150.5200008
 },
 {
   "name": "Cairns",
   "lat": -16.88783986,
   "lng": 145.7633309
 },
 {
   "name": "Gold Coast",
   "lat": -28.08150429,
   "lng": 153.4482458
 },
 {
   "name": "Devonport",
   "lat": -41.19266757,
   "lng": 146.3311017
 },
 {
   "name": "Darwin",
   "lat": -12.42535398,
   "lng": 130.8500386
 },
 {
   "name": "Alice Springs",
   "lat": -23.70099648,
   "lng": 133.8800345
 },
 {
   "name": "Canberra",
   "lat": -35.28302855,
   "lng": 149.1290262
 },
 {
   "name": "Newcastle",
   "lat": -32.84534788,
   "lng": 151.8150122
 },
 {
   "name": "Adelaide",
   "lat": -34.93498777,
   "lng": 138.6000048
 },
 {
   "name": "Townsville",
   "lat": -19.24995034,
   "lng": 146.7699971
 },
 {
   "name": "Brisbane",
   "lat": -27.45503091,
   "lng": 153.0350927
 },
 {
   "name": "Hobart",
   "lat": -42.85000853,
   "lng": 147.2950297
 },
 {
   "name": "Perth",
   "lat": -31.95501463,
   "lng": 115.8399987
 },
 {
   "name": "Melbourne",
   "lat": -37.82003131,
   "lng": 144.9750162
 },
 {
   "name": "Sydney",
   "lat": -33.92001097,
   "lng": 151.1851798
 },
 {
   "name": "Bregenz",
   "lat": 47.51669707,
   "lng": 9.766701588
 },
 {
   "name": "Eisenstadt",
   "lat": 47.83329908,
   "lng": 16.53329747
 },
 {
   "name": "Wiener Neustadt",
   "lat": 47.81598187,
   "lng": 16.24995357
 },
 {
   "name": "Graz",
   "lat": 47.0777582,
   "lng": 15.41000484
 },
 {
   "name": "Klagenfurt",
   "lat": 46.62034426,
   "lng": 14.3100203
 },
 {
   "name": "Linz",
   "lat": 48.31923281,
   "lng": 14.28878129
 },
 {
   "name": "Passau",
   "lat": 48.56704714,
   "lng": 13.46660925
 },
 {
   "name": "Salzburg",
   "lat": 47.81047833,
   "lng": 13.0400203
 },
 {
   "name": "Innsbruck",
   "lat": 47.28040733,
   "lng": 11.4099906
 },
 {
   "name": "Vienna",
   "lat": 48.20001528,
   "lng": 16.36663896
 },
 {
   "name": "Gadabay",
   "lat": 40.5655556,
   "lng": 45.8161111
 },
 {
   "name": "Goranboy",
   "lat": 40.6102778,
   "lng": 46.7897222
 },
 {
   "name": "Tovuz",
   "lat": 40.9922222,
   "lng": 45.6288889
 },
 {
   "name": "Agdam",
   "lat": 40.9052778,
   "lng": 45.5563889
 },
 {
   "name": "Qabala",
   "lat": 40.9813889,
   "lng": 47.8458333
 },
 {
   "name": "Oguz",
   "lat": 41.0708333,
   "lng": 47.4583333
 },
 {
   "name": "Ganca",
   "lat": 40.68499595,
   "lng": 46.35002844
 },
 {
   "name": "Yevlax",
   "lat": 40.61719647,
   "lng": 47.15003129
 },
 {
   "name": "Sumqayt",
   "lat": 40.58001528,
   "lng": 49.62998328
 },
 {
   "name": "Ali Bayramli",
   "lat": 39.93230288,
   "lng": 48.92025915
 },
 {
   "name": "Goycay",
   "lat": 40.65342165,
   "lng": 47.74058956
 },
 {
   "name": "Lankaran",
   "lat": 38.7540027,
   "lng": 48.85106441
 },
 {
   "name": "Saki",
   "lat": 41.19232932,
   "lng": 47.17054683
 },
 {
   "name": "Stepanakert",
   "lat": 39.81564333,
   "lng": 46.75196773
 },
 {
   "name": "Kapan",
   "lat": 39.20152061,
   "lng": 46.41498572
 },
 {
   "name": "Naxcivan",
   "lat": 39.2092204,
   "lng": 45.41220455
 },
 {
   "name": "Baku",
   "lat": 40.39527203,
   "lng": 49.86221716
 },
 {
   "name": "Manama",
   "lat": 26.23613629,
   "lng": 50.58305172
 },
 {
   "name": "Tangail",
   "lat": 24.24997845,
   "lng": 89.92003048
 },
 {
   "name": "Sylhet",
   "lat": 24.90355613,
   "lng": 91.87360632
 },
 {
   "name": "Mymensingh",
   "lat": 24.75041302,
   "lng": 90.3800024
 },
 {
   "name": "Jamalpur",
   "lat": 24.90042971,
   "lng": 89.95000281
 },
 {
   "name": "Narayanganj",
   "lat": 23.62040448,
   "lng": 90.49999508
 },
 {
   "name": "Jessore",
   "lat": 23.17043194,
   "lng": 89.19997107
 },
 {
   "name": "Barisal",
   "lat": 22.70040895,
   "lng": 90.37498979
 },
 {
   "name": "Comilla",
   "lat": 23.47041363,
   "lng": 91.16998002
 },
 {
   "name": "Pabna",
   "lat": 24.00038129,
   "lng": 89.24999385
 },
 {
   "name": "Nawabganj",
   "lat": 24.58039756,
   "lng": 88.34999711
 },
 {
   "name": "Saidpur",
   "lat": 25.80042645,
   "lng": 88.99998328
 },
 {
   "name": "Rangpur",
   "lat": 25.75001609,
   "lng": 89.28001786
 },
 {
   "name": "Khulna",
   "lat": 22.839987,
   "lng": 89.56000077
 },
 {
   "name": "Rajshahi",
   "lat": 24.37498374,
   "lng": 88.6050203
 },
 {
   "name": "Dhaka",
   "lat": 23.72305971,
   "lng": 90.40857947
 },
 {
   "name": "Chittagong",
   "lat": 22.32999229,
   "lng": 91.79996741
 },
 {
   "name": "Bridgetown",
   "lat": 13.10200258,
   "lng": -59.61652674
 },
 {
   "name": "Baranavichy",
   "lat": 53.13684572,
   "lng": 26.01344031
 },
 {
   "name": "Polatsk",
   "lat": 55.48938946,
   "lng": 28.78598425
 },
 {
   "name": "Maladzyechna",
   "lat": 54.31878908,
   "lng": 26.86532629
 },
 {
   "name": "Pinsk",
   "lat": 52.12786338,
   "lng": 26.09405554
 },
 {
   "name": "Mazyr",
   "lat": 52.04595624,
   "lng": 29.27215613
 },
 {
   "name": "Mahilyow",
   "lat": 53.89850466,
   "lng": 30.32465002
 },
 {
   "name": "Babruysk",
   "lat": 53.12656211,
   "lng": 29.19278113
 },
 {
   "name": "Orsha",
   "lat": 54.51531455,
   "lng": 30.42154333
 },
 {
   "name": "Lida",
   "lat": 53.88847943,
   "lng": 25.28464758
 },
 {
   "name": "Hrodna",
   "lat": 53.67787213,
   "lng": 23.83409013
 },
 {
   "name": "Barysaw",
   "lat": 54.22600405,
   "lng": 28.49215206
 },
 {
   "name": "Homyel",
   "lat": 52.43001548,
   "lng": 31.00000932
 },
 {
   "name": "Vitsyebsk",
   "lat": 55.18871014,
   "lng": 30.18533036
 },
 {
   "name": "Brest",
   "lat": 52.09998395,
   "lng": 23.69998979
 },
 {
   "name": "Minsk",
   "lat": 53.89997744,
   "lng": 27.56662716
 },
 {
   "name": "Mons",
   "lat": 50.44599911,
   "lng": 3.939003561
 },
 {
   "name": "Hasselt",
   "lat": 50.96400317,
   "lng": 5.483997561
 },
 {
   "name": "Arlon",
   "lat": 49.68330313,
   "lng": 5.816700472
 },
 {
   "name": "Gent",
   "lat": 51.02999758,
   "lng": 3.700021931
 },
 {
   "name": "Liege",
   "lat": 50.62999615,
   "lng": 5.580010537
 },
 {
   "name": "Brugge",
   "lat": 51.22037355,
   "lng": 3.230024779
 },
 {
   "name": "Namur",
   "lat": 50.47039349,
   "lng": 4.870028034
 },
 {
   "name": "Charleroi",
   "lat": 50.42039654,
   "lng": 4.450001992
 },
 {
   "name": "Antwerpen",
   "lat": 51.22037355,
   "lng": 4.415017048
 },
 {
   "name": "Brussels",
   "lat": 50.83331708,
   "lng": 4.333316608
 },
 {
   "name": "El Cayo",
   "lat": 17.15599807,
   "lng": -89.06100252
 },
 {
   "name": "Corozal",
   "lat": 18.39799811,
   "lng": -88.3880005
 },
 {
   "name": "Dangriga",
   "lat": 16.97003522,
   "lng": -88.22000045
 },
 {
   "name": "Belize City",
   "lat": 17.49871096,
   "lng": -88.18837447
 },
 {
   "name": "Orange Walk",
   "lat": 18.09043194,
   "lng": -88.5599797
 },
 {
   "name": "Punta Gorda",
   "lat": 16.1003467,
   "lng": -88.81001612
 },
 {
   "name": "Belmopan",
   "lat": 17.25203351,
   "lng": -88.767073
 },
 {
   "name": "Lokossa",
   "lat": 6.615000092,
   "lng": 1.715004457
 },
 {
   "name": "Kandi",
   "lat": 11.13036582,
   "lng": 2.940016641
 },
 {
   "name": "Ouidah",
   "lat": 6.360372741,
   "lng": 2.089991006
 },
 {
   "name": "Abomey",
   "lat": 7.190399596,
   "lng": 1.98999711
 },
 {
   "name": "Natitingou",
   "lat": 10.32041526,
   "lng": 1.389982054
 },
 {
   "name": "Djougou",
   "lat": 9.700427265,
   "lng": 1.680041869
 },
 {
   "name": "Parakou",
   "lat": 9.340009988,
   "lng": 2.620036172
 },
 {
   "name": "Porto-Novo",
   "lat": 6.483310973,
   "lng": 2.616625528
 },
 {
   "name": "Cotonou",
   "lat": 6.400008564,
   "lng": 2.519990599
 },
 {
   "name": "Hamilton",
   "lat": 32.29419029,
   "lng": -64.78393742
 },
 {
   "name": "Paro",
   "lat": 27.3833011,
   "lng": 89.51670065
 },
 {
   "name": "Punakha",
   "lat": 27.63330305,
   "lng": 89.83330266
 },
 {
   "name": "Wangdue Prodrang",
   "lat": 27.43329603,
   "lng": 89.91669667
 },
 {
   "name": "Thimphu",
   "lat": 27.47298586,
   "lng": 89.63901404
 },
 {
   "name": "Punata",
   "lat": -17.55000242,
   "lng": -65.83997115
 },
 {
   "name": "Cliza",
   "lat": -17.58999998,
   "lng": -65.9299915
 },
 {
   "name": "Quillacollo",
   "lat": -17.39998574,
   "lng": -66.27999597
 },
 {
   "name": "Puerto Villarroel",
   "lat": -16.87004393,
   "lng": -64.78001001
 },
 {
   "name": "Tarabuco",
   "lat": -19.18003213,
   "lng": -64.91994979
 },
 {
   "name": "Guayaramerin",
   "lat": -10.82999917,
   "lng": -65.4099974
 },
 {
   "name": "Santa Ana",
   "lat": -13.7600012,
   "lng": -65.57996118
 },
 {
   "name": "Baures",
   "lat": -13.58001219,
   "lng": -63.58005742
 },
 {
   "name": "Sica Sica",
   "lat": -17.33001585,
   "lng": -67.72998499
 },
 {
   "name": "Rurrenabaque",
   "lat": -14.46001015,
   "lng": -67.55999536
 },
 {
   "name": "Sorata",
   "lat": -15.79000649,
   "lng": -68.66005742
 },
 {
   "name": "Achacachi",
   "lat": -16.08332192,
   "lng": -68.66656865
 },
 {
   "name": "Viacha",
   "lat": -16.65000568,
   "lng": -68.2999502
 },
 {
   "name": "Quime",
   "lat": -16.98001137,
   "lng": -67.22001612
 },
 {
   "name": "Llallagua",
   "lat": -18.42002684,
   "lng": -66.63999984
 },
 {
   "name": "Uncia",
   "lat": -18.46999795,
   "lng": -66.57002995
 },
 {
   "name": "Uyuni",
   "lat": -20.46000568,
   "lng": -66.82998824
 },
 {
   "name": "Villa Martin",
   "lat": -20.76655027,
   "lng": -67.7833409
 },
 {
   "name": "Betanzos",
   "lat": -19.55995726,
   "lng": -65.45002079
 },
 {
   "name": "Portachuelo",
   "lat": -17.36003986,
   "lng": -63.40001673
 },
 {
   "name": "Samaipata",
   "lat": -18.18004148,
   "lng": -63.77001998
 },
 {
   "name": "Cuevo",
   "lat": -20.45003213,
   "lng": -63.52998295
 },
 {
   "name": "San Carlos",
   "lat": -17.39998574,
   "lng": -63.72999658
 },
 {
   "name": "San Lorenzo",
   "lat": -21.47994342,
   "lng": -64.77001062
 },
 {
   "name": "Entre Rios",
   "lat": -21.53001788,
   "lng": -64.18999435
 },
 {
   "name": "Aiquile",
   "lat": -18.18954995,
   "lng": -65.18001144
 },
 {
   "name": "Padilla",
   "lat": -19.29961139,
   "lng": -64.30996118
 },
 {
   "name": "Camargo",
   "lat": -20.63958128,
   "lng": -65.20998377
 },
 {
   "name": "Reyes",
   "lat": -14.30958006,
   "lng": -67.37000696
 },
 {
   "name": "San Borja",
   "lat": -14.81962645,
   "lng": -66.84996118
 },
 {
   "name": "Magdalena",
   "lat": -13.2600834,
   "lng": -64.05276758
 },
 {
   "name": "San Ramon",
   "lat": -13.28959064,
   "lng": -64.70998845
 },
 {
   "name": "Puerto Heath",
   "lat": -12.49961302,
   "lng": -68.66656865
 },
 {
   "name": "Charana",
   "lat": -17.5996118,
   "lng": -69.46659733
 },
 {
   "name": "Puerto Acosta",
   "lat": -15.49958494,
   "lng": -69.16666732
 },
 {
   "name": "Apolo",
   "lat": -14.71958087,
   "lng": -68.41999455
 },
 {
   "name": "Coroico",
   "lat": -16.18962034,
   "lng": -67.72001144
 },
 {
   "name": "Coro Coro",
   "lat": -17.1696122,
   "lng": -68.44996688
 },
 {
   "name": "Sabaya",
   "lat": -19.01626951,
   "lng": -68.38327844
 },
 {
   "name": "Challapata",
   "lat": -18.89958413,
   "lng": -66.77999129
 },
 {
   "name": "Llica",
   "lat": -19.84960366,
   "lng": -68.25003076
 },
 {
   "name": "Potosi",
   "lat": -19.56956907,
   "lng": -65.75002832
 },
 {
   "name": "Villazon",
   "lat": -22.07959674,
   "lng": -65.5999858
 },
 {
   "name": "Tupiza",
   "lat": -21.43958413,
   "lng": -65.72000431
 },
 {
   "name": "Montero",
   "lat": -17.34960122,
   "lng": -63.26002527
 },
 {
   "name": "Piso Firme",
   "lat": -13.68295164,
   "lng": -61.86662195
 },
 {
   "name": "Robore",
   "lat": -18.3295414,
   "lng": -59.75998051
 },
 {
   "name": "Puerto Quijarro",
   "lat": -17.77960081,
   "lng": -57.77002446
 },
 {
   "name": "San Ignacio",
   "lat": -16.36960936,
   "lng": -60.96001062
 },
 {
   "name": "Ascension",
   "lat": -15.69957273,
   "lng": -63.07998458
 },
 {
   "name": "San Javier",
   "lat": -16.28961424,
   "lng": -62.50001998
 },
 {
   "name": "San Rafael",
   "lat": -16.77950682,
   "lng": -60.6799502
 },
 {
   "name": "Vallegrande",
   "lat": -18.48958331,
   "lng": -64.10999923
 },
 {
   "name": "Puerto Suarez",
   "lat": -18.94955524,
   "lng": -57.8499679
 },
 {
   "name": "Charagua",
   "lat": -19.79958087,
   "lng": -63.2199502
 },
 {
   "name": "Villamontes",
   "lat": -21.24956989,
   "lng": -63.50001062
 },
 {
   "name": "Bermejo",
   "lat": -22.72958291,
   "lng": -64.34998458
 },
 {
   "name": "Cochabamba",
   "lat": -17.41001097,
   "lng": -66.16997685
 },
 {
   "name": "Oruro",
   "lat": -17.97995034,
   "lng": -67.12999577
 },
 {
   "name": "Camiri",
   "lat": -20.05000486,
   "lng": -63.51998356
 },
 {
   "name": "Cobija",
   "lat": -11.03334593,
   "lng": -68.73330876
 },
 {
   "name": "San Matias",
   "lat": -16.35999754,
   "lng": -58.42001062
 },
 {
   "name": "San Jose",
   "lat": -17.85003579,
   "lng": -60.77999577
 },
 {
   "name": "Trinidad",
   "lat": -14.83337238,
   "lng": -64.89997685
 },
 {
   "name": "Tarija",
   "lat": -21.51668537,
   "lng": -64.749986
 },
 {
   "name": "Sucre",
   "lat": -19.04097085,
   "lng": -65.25951563
 },
 {
   "name": "Riberalta",
   "lat": -10.98301308,
   "lng": -66.10000696
 },
 {
   "name": "La Paz",
   "lat": -16.49797361,
   "lng": -68.14998519
 },
 {
   "name": "Santa Cruz",
   "lat": -17.75391762,
   "lng": -63.22599634
 },
 {
   "name": "Zenica",
   "lat": 44.21997398,
   "lng": 17.91998083
 },
 {
   "name": "Mostar",
   "lat": 43.35049217,
   "lng": 17.82003861
 },
 {
   "name": "Tuzla",
   "lat": 44.5504706,
   "lng": 18.6800378
 },
 {
   "name": "Prijedor",
   "lat": 44.98039268,
   "lng": 16.70000362
 },
 {
   "name": "Banja Luka",
   "lat": 44.78040489,
   "lng": 17.17997432
 },
 {
   "name": "Sarajevo",
   "lat": 43.8500224,
   "lng": 18.38300167
 },
 {
   "name": "Mochudi",
   "lat": -24.377004,
   "lng": 26.15200256
 },
 {
   "name": "Ghanzi",
   "lat": -21.69961994,
   "lng": 21.63996049
 },
 {
   "name": "Lokhwabe",
   "lat": -24.16959837,
   "lng": 21.83002641
 },
 {
   "name": "Lehututu",
   "lat": -23.96961058,
   "lng": 21.87002397
 },
 {
   "name": "Tshabong",
   "lat": -26.00948606,
   "lng": 22.40001745
 },
 {
   "name": "Tsau",
   "lat": -20.15961058,
   "lng": 22.45996212
 },
 {
   "name": "Nokaneng",
   "lat": -19.66961465,
   "lng": 22.26999955
 },
 {
   "name": "Mohembo",
   "lat": -18.29956907,
   "lng": 21.8000024
 },
 {
   "name": "Maun",
   "lat": -19.98959511,
   "lng": 23.42000688
 },
 {
   "name": "Kasane",
   "lat": -17.80957314,
   "lng": 25.15003048
 },
 {
   "name": "Nata",
   "lat": -20.20947833,
   "lng": 26.19001868
 },
 {
   "name": "Mopipi",
   "lat": -21.17954832,
   "lng": 24.88002112
 },
 {
   "name": "Palapye",
   "lat": -22.55961912,
   "lng": 27.13001298
 },
 {
   "name": "Lobatse",
   "lat": -25.2196118,
   "lng": 25.68002397
 },
 {
   "name": "Kanye",
   "lat": -24.96960122,
   "lng": 25.33999304
 },
 {
   "name": "Molepolole",
   "lat": -24.3999719,
   "lng": 25.5100085
 },
 {
   "name": "Francistown",
   "lat": -21.17003986,
   "lng": 27.50001623
 },
 {
   "name": "Mahalapye",
   "lat": -23.09999957,
   "lng": 26.82000606
 },
 {
   "name": "Serowe",
   "lat": -22.39001707,
   "lng": 26.71003861
 },
 {
   "name": "Gaborone",
   "lat": -24.64631346,
   "lng": 25.91194779
 },
 {
   "name": "Grajau",
   "lat": -5.809995505,
   "lng": -46.14998438
 },
 {
   "name": "Presidente Dutra",
   "lat": -5.250029685,
   "lng": -44.51998051
 },
 {
   "name": "Itapecuru Mirim",
   "lat": -3.400013409,
   "lng": -44.36001611
 },
 {
   "name": "Sao Jose de Ribamar",
   "lat": -2.549987774,
   "lng": -44.06998214
 },
 {
   "name": "Santa Ines",
   "lat": -3.659997539,
   "lng": -45.39003076
 },
 {
   "name": "Rosario",
   "lat": -2.940041485,
   "lng": -44.26002222
 },
 {
   "name": "Timon",
   "lat": -5.114999167,
   "lng": -42.84496647
 },
 {
   "name": "Capanema",
   "lat": -1.190019105,
   "lng": -47.17999903
 },
 {
   "name": "Portel",
   "lat": -1.949972718,
   "lng": -50.81998356
 },
 {
   "name": "Itupiranga",
   "lat": -5.120011781,
   "lng": -49.30002466
 },
 {
   "name": "Pimenta Bueno",
   "lat": -11.64002724,
   "lng": -61.20999536
 },
 {
   "name": "Ponta Pora",
   "lat": -22.53000853,
   "lng": -55.7299681
 },
 {
   "name": "Maracaju",
   "lat": -21.610013,
   "lng": -55.18002751
 },
 {
   "name": "Jardim",
   "lat": -21.47994342,
   "lng": -56.15001998
 },
 {
   "name": "Tres Lagoas",
   "lat": -20.79001137,
   "lng": -51.72000615
 },
 {
   "name": "Guanhaes",
   "lat": -18.78000486,
   "lng": -42.95002466
 },
 {
   "name": "Leopoldina",
   "lat": -21.53001788,
   "lng": -42.64004358
 },
 {
   "name": "Nova Lima",
   "lat": -19.98003497,
   "lng": -43.8500214
 },
 {
   "name": "Pouso Alegre",
   "lat": -22.22000161,
   "lng": -45.94002303
 },
 {
   "name": "Itauna",
   "lat": -20.06003009,
   "lng": -44.57002914
 },
 {
   "name": "Caratinga",
   "lat": -19.79002073,
   "lng": -42.13999658
 },
 {
   "name": "Diamantina",
   "lat": -18.23998615,
   "lng": -43.60998438
 },
 {
   "name": "Nanuque",
   "lat": -17.83995888,
   "lng": -40.35002832
 },
 {
   "name": "Barbacena",
   "lat": -21.22001097,
   "lng": -43.77000045
 },
 {
   "name": "Pocos de Caldas",
   "lat": -21.78002846,
   "lng": -46.56998458
 },
 {
   "name": "Guaxupe",
   "lat": -21.29003253,
   "lng": -46.7099502
 },
 {
   "name": "Sao Joao del Rei",
   "lat": -21.1300423,
   "lng": -44.24999699
 },
 {
   "name": "Muriae",
   "lat": -21.1300423,
   "lng": -42.38998132
 },
 {
   "name": "Passos",
   "lat": -20.71001626,
   "lng": -46.60998214
 },
 {
   "name": "Conselheiro Lafaiete",
   "lat": -20.6700187,
   "lng": -43.78999923
 },
 {
   "name": "Formiga",
   "lat": -20.46000568,
   "lng": -45.43002832
 },
 {
   "name": "Frutal",
   "lat": -20.03000608,
   "lng": -48.94002079
 },
 {
   "name": "Iturama",
   "lat": -19.72997272,
   "lng": -50.2000214
 },
 {
   "name": "Ituiutaba",
   "lat": -18.97001911,
   "lng": -49.45998906
 },
 {
   "name": "Araguari",
   "lat": -18.64001341,
   "lng": -48.19998845
 },
 {
   "name": "Almenara",
   "lat": -16.17003497,
   "lng": -40.70000696
 },
 {
   "name": "Varzea Grande",
   "lat": -15.65001504,
   "lng": -56.14002059
 },
 {
   "name": "Caceres",
   "lat": -16.0500423,
   "lng": -57.51001449
 },
 {
   "name": "Santana do Livramento",
   "lat": -30.88004148,
   "lng": -55.53000615
 },
 {
   "name": "Canoas",
   "lat": -29.91999673,
   "lng": -51.17998743
 },
 {
   "name": "Quarai",
   "lat": -30.38002033,
   "lng": -56.45994938
 },
 {
   "name": "Santa Vitoria do Palmar",
   "lat": -33.52003538,
   "lng": -53.36998295
 },
 {
   "name": "Sao Lourenco do Sul",
   "lat": -31.36998574,
   "lng": -51.98001611
 },
 {
   "name": "Canela",
   "lat": -29.36003091,
   "lng": -50.81001001
 },
 {
   "name": "Sao Gabriel",
   "lat": -30.32002399,
   "lng": -54.32002832
 },
 {
   "name": "Rosario do Sul",
   "lat": -30.25000242,
   "lng": -54.92001754
 },
 {
   "name": "Cachoeira do Sul",
   "lat": -30.02996417,
   "lng": -52.90998519
 },
 {
   "name": "Osorio",
   "lat": -29.87999917,
   "lng": -50.26999129
 },
 {
   "name": "Santa Cruz do Sul",
   "lat": -29.71003538,
   "lng": -52.44003972
 },
 {
   "name": "Sao Luiz Gonzaga",
   "lat": -28.41001137,
   "lng": -54.95998926
 },
 {
   "name": "Santo Angelo",
   "lat": -28.30004393,
   "lng": -54.28003076
 },
 {
   "name": "Carazinho",
   "lat": -28.2900187,
   "lng": -52.80004358
 },
 {
   "name": "Erechim",
   "lat": -27.63000731,
   "lng": -52.26999841
 },
 {
   "name": "Guaira",
   "lat": -24.08996499,
   "lng": -54.2699797
 },
 {
   "name": "Palmas",
   "lat": -26.47999998,
   "lng": -51.99998906
 },
 {
   "name": "Arapongas",
   "lat": -23.41000649,
   "lng": -51.43004968
 },
 {
   "name": "Paranagua",
   "lat": -25.52787556,
   "lng": -48.53445345
 },
 {
   "name": "Sao Jose dos Pinhais",
   "lat": -25.57002968,
   "lng": -49.18000615
 },
 {
   "name": "Guarapuava",
   "lat": -25.38001544,
   "lng": -51.48002079
 },
 {
   "name": "Rio Negro",
   "lat": -26.10002317,
   "lng": -49.79002059
 },
 {
   "name": "Apucarana",
   "lat": -23.54999795,
   "lng": -51.4700214
 },
 {
   "name": "Lapa",
   "lat": -25.76004393,
   "lng": -49.72999841
 },
 {
   "name": "Irati",
   "lat": -25.47003579,
   "lng": -50.65996749
 },
 {
   "name": "Castro",
   "lat": -24.79002562,
   "lng": -50.00998132
 },
 {
   "name": "Telemaco Borba",
   "lat": -24.32995034,
   "lng": -50.61999577
 },
 {
   "name": "Jacarezinho",
   "lat": -23.15994424,
   "lng": -49.97998316
 },
 {
   "name": "Concordia",
   "lat": -27.23003172,
   "lng": -52.03001306
 },
 {
   "name": "Blumenau",
   "lat": -26.9200248,
   "lng": -49.0899858
 },
 {
   "name": "Brusque",
   "lat": -27.12998615,
   "lng": -48.9300214
 },
 {
   "name": "Ararangua",
   "lat": -28.94000486,
   "lng": -49.49998661
 },
 {
   "name": "Jaragua do Sul",
   "lat": -26.47999998,
   "lng": -49.09998519
 },
 {
   "name": "Tubarao",
   "lat": -28.48003294,
   "lng": -49.02001591
 },
 {
   "name": "Laguna",
   "lat": -28.48003294,
   "lng": -48.77997888
 },
 {
   "name": "Joacaba",
   "lat": -27.17003538,
   "lng": -51.4999679
 },
 {
   "name": "Cacador",
   "lat": -26.77000812,
   "lng": -51.02002303
 },
 {
   "name": "Canoinhas",
   "lat": -26.17996662,
   "lng": -50.4000092
 },
 {
   "name": "Camocim",
   "lat": -2.89999225,
   "lng": -40.85002364
 },
 {
   "name": "Russas",
   "lat": -4.940022767,
   "lng": -37.97999211
 },
 {
   "name": "Sobral",
   "lat": -3.690021547,
   "lng": -40.35002832
 },
 {
   "name": "Iguatu",
   "lat": -6.359987774,
   "lng": -39.29998906
 },
 {
   "name": "Quixada",
   "lat": -4.969995098,
   "lng": -39.02000615
 },
 {
   "name": "Caninde",
   "lat": -4.35003294,
   "lng": -39.30998845
 },
 {
   "name": "Campo Maior",
   "lat": -4.820030091,
   "lng": -42.18001998
 },
 {
   "name": "Barras",
   "lat": -4.250039043,
   "lng": -42.29998682
 },
 {
   "name": "Rio Largo",
   "lat": -9.48000405,
   "lng": -35.83996769
 },
 {
   "name": "Palmeira dos Indios",
   "lat": -9.416597067,
   "lng": -36.61663863
 },
 {
   "name": "Santa Cruz Cabralia",
   "lat": -16.28000242,
   "lng": -39.0299797
 },
 {
   "name": "Paulo Afonso",
   "lat": -9.330659161,
   "lng": -38.26565943
 },
 {
   "name": "Brumado",
   "lat": -14.20999957,
   "lng": -41.67002527
 },
 {
   "name": "Jaguaquara",
   "lat": -13.5299894,
   "lng": -39.96999984
 },
 {
   "name": "Itapetinga",
   "lat": -15.24998777,
   "lng": -40.24998275
 },
 {
   "name": "Ubaitaba",
   "lat": -14.30001992,
   "lng": -39.33001306
 },
 {
   "name": "Cachoeiro de Itapemirim",
   "lat": -20.85000771,
   "lng": -41.12998071
 },
 {
   "name": "Barra Mansa",
   "lat": -22.56003253,
   "lng": -44.1699502
 },
 {
   "name": "Nova Iguacu",
   "lat": -22.74002155,
   "lng": -43.46996708
 },
 {
   "name": "Duque de Caxias",
   "lat": -22.76999388,
   "lng": -43.30997685
 },
 {
   "name": "Niteroi",
   "lat": -22.90001178,
   "lng": -43.09998967
 },
 {
   "name": "Cabo Frio",
   "lat": -22.88998655,
   "lng": -42.03997685
 },
 {
   "name": "Macae",
   "lat": -22.37999184,
   "lng": -41.78999211
 },
 {
   "name": "Miracema",
   "lat": -21.41002521,
   "lng": -42.19996708
 },
 {
   "name": "Apodi",
   "lat": -5.650005271,
   "lng": -37.80000309
 },
 {
   "name": "Santa Cruz",
   "lat": -6.219996319,
   "lng": -36.02998194
 },
 {
   "name": "Morrinhos",
   "lat": -17.73004311,
   "lng": -49.10998458
 },
 {
   "name": "Ceres",
   "lat": -15.30331785,
   "lng": -49.60519983
 },
 {
   "name": "Catalao",
   "lat": -18.18004148,
   "lng": -47.9500037
 },
 {
   "name": "Cristalina",
   "lat": -16.76999835,
   "lng": -47.61002446
 },
 {
   "name": "Trindade",
   "lat": -16.65000568,
   "lng": -49.49998661
 },
 {
   "name": "Ipora",
   "lat": -16.45001788,
   "lng": -51.12999048
 },
 {
   "name": "Inhumas",
   "lat": -16.35999754,
   "lng": -49.49998661
 },
 {
   "name": "Itaberai",
   "lat": -16.01996662,
   "lng": -49.80996769
 },
 {
   "name": "Santo Andre",
   "lat": -23.65283405,
   "lng": -46.52781661
 },
 {
   "name": "Pindamonhangaba",
   "lat": -22.91995888,
   "lng": -45.47002588
 },
 {
   "name": "Rio Claro",
   "lat": -22.40996417,
   "lng": -47.56002751
 },
 {
   "name": "Ourinhos",
   "lat": -22.97003335,
   "lng": -49.86998987
 },
 {
   "name": "Itanhaem",
   "lat": -24.17998533,
   "lng": -46.80002222
 },
 {
   "name": "Jaboticabal",
   "lat": -21.25003497,
   "lng": -48.32998051
 },
 {
   "name": "Braganca Paulista",
   "lat": -22.95003457,
   "lng": -46.5499858
 },
 {
   "name": "Jundiai",
   "lat": -23.19999347,
   "lng": -46.8799915
 },
 {
   "name": "Sao Jose dos Campos",
   "lat": -23.19999347,
   "lng": -45.87994918
 },
 {
   "name": "Guaratingueta",
   "lat": -22.81996499,
   "lng": -45.18999129
 },
 {
   "name": "Pirassununga",
   "lat": -21.99004148,
   "lng": -47.42998377
 },
 {
   "name": "Americana",
   "lat": -22.74994342,
   "lng": -47.32998987
 },
 {
   "name": "Piracicaba",
   "lat": -22.70999754,
   "lng": -47.63999679
 },
 {
   "name": "Sao Joao da Boa Vista",
   "lat": -21.98001626,
   "lng": -46.78999699
 },
 {
   "name": "Sao Carlos",
   "lat": -22.02001382,
   "lng": -47.88998153
 },
 {
   "name": "Tupa",
   "lat": -21.92999347,
   "lng": -50.5199502
 },
 {
   "name": "Penapolis",
   "lat": -21.41002521,
   "lng": -50.08000289
 },
 {
   "name": "Presidente Prudente",
   "lat": -22.12000771,
   "lng": -51.39000045
 },
 {
   "name": "Registro",
   "lat": -24.49004393,
   "lng": -47.83998458
 },
 {
   "name": "Tatui",
   "lat": -23.35001015,
   "lng": -47.8600092
 },
 {
   "name": "Avare",
   "lat": -23.1100248,
   "lng": -48.9300214
 },
 {
   "name": "Garca",
   "lat": -22.22000161,
   "lng": -49.65997685
 },
 {
   "name": "Catanduva",
   "lat": -21.14001585,
   "lng": -48.97996668
 },
 {
   "name": "Batatais",
   "lat": -20.89000527,
   "lng": -47.58999984
 },
 {
   "name": "Barretos",
   "lat": -20.55002602,
   "lng": -48.58001693
 },
 {
   "name": "Marilia",
   "lat": -22.21002806,
   "lng": -49.95001083
 },
 {
   "name": "Itu",
   "lat": -23.26004148,
   "lng": -47.30001754
 },
 {
   "name": "Itapetininga",
   "lat": -23.58999551,
   "lng": -48.03999821
 },
 {
   "name": "Jaboatao",
   "lat": -8.110010153,
   "lng": -35.02004358
 },
 {
   "name": "Olinda",
   "lat": -7.999991029,
   "lng": -34.8499506
 },
 {
   "name": "Cabo de Santo Agostinho",
   "lat": -8.289999167,
   "lng": -35.02999129
 },
 {
   "name": "Carpina",
   "lat": -7.840000795,
   "lng": -35.26000309
 },
 {
   "name": "Arcoverde",
   "lat": -8.420017071,
   "lng": -37.06999597
 },
 {
   "name": "Manacapuru",
   "lat": -3.289580873,
   "lng": -60.6199797
 },
 {
   "name": "Maues",
   "lat": -3.389626446,
   "lng": -57.72002751
 },
 {
   "name": "Pedreiras",
   "lat": -4.569606101,
   "lng": -44.67002303
 },
 {
   "name": "Codo",
   "lat": -4.479585756,
   "lng": -43.8799679
 },
 {
   "name": "Coroata",
   "lat": -4.12958128,
   "lng": -44.15000309
 },
 {
   "name": "Chapadinha",
   "lat": -3.739527569,
   "lng": -43.35999964
 },
 {
   "name": "Pinheiro",
   "lat": -2.519602032,
   "lng": -45.0899974
 },
 {
   "name": "Barra do Corda",
   "lat": -5.509600404,
   "lng": -45.25996118
 },
 {
   "name": "Viana",
   "lat": -3.209585756,
   "lng": -45.00000289
 },
 {
   "name": "Colinas",
   "lat": -6.039542217,
   "lng": -44.2399976
 },
 {
   "name": "Viseu",
   "lat": -1.196478659,
   "lng": -46.14001083
 },
 {
   "name": "Capitao Poco",
   "lat": -1.74962319,
   "lng": -47.09000452
 },
 {
   "name": "Castanhal",
   "lat": -1.28959959,
   "lng": -47.93003076
 },
 {
   "name": "Salinopolis",
   "lat": -0.609486065,
   "lng": -47.33998926
 },
 {
   "name": "Alenquer",
   "lat": -1.939585756,
   "lng": -54.78999964
 },
 {
   "name": "Oriximina",
   "lat": -1.759596742,
   "lng": -55.86998539
 },
 {
   "name": "Xinguara",
   "lat": -7.100614401,
   "lng": -49.94804712
 },
 {
   "name": "Jacunda",
   "lat": -4.599578431,
   "lng": -49.38996749
 },
 {
   "name": "Uruara",
   "lat": -3.82959959,
   "lng": -54.02999435
 },
 {
   "name": "Altamira",
   "lat": -3.199612204,
   "lng": -52.21000208
 },
 {
   "name": "Paragominas",
   "lat": -2.959575176,
   "lng": -47.49000594
 },
 {
   "name": "Cameta",
   "lat": -2.239619121,
   "lng": -49.509986
 },
 {
   "name": "Rolim de Moura",
   "lat": -11.73020262,
   "lng": -61.78063237
 },
 {
   "name": "Ariquemes",
   "lat": -9.939614239,
   "lng": -63.07998458
 },
 {
   "name": "Abuna",
   "lat": -9.69539142,
   "lng": -65.35971623
 },
 {
   "name": "Tocantinopolis",
   "lat": -6.319576804,
   "lng": -47.41998438
 },
 {
   "name": "Gurupi",
   "lat": -11.71960895,
   "lng": -49.05998763
 },
 {
   "name": "Aquidauana",
   "lat": -20.46961749,
   "lng": -55.79001611
 },
 {
   "name": "Paranaiba",
   "lat": -19.6795882,
   "lng": -51.20001205
 },
 {
   "name": "Sete Lagoas",
   "lat": -19.44962807,
   "lng": -44.24999699
 },
 {
   "name": "Divinopolis",
   "lat": -20.14953367,
   "lng": -44.89998316
 },
 {
   "name": "Ipatinga",
   "lat": -19.4796004,
   "lng": -42.51999923
 },
 {
   "name": "Araxa",
   "lat": -19.5795943,
   "lng": -46.95001306
 },
 {
   "name": "Lavras",
   "lat": -21.24956989,
   "lng": -45.0099506
 },
 {
   "name": "Uba",
   "lat": -21.11960366,
   "lng": -42.95002466
 },
 {
   "name": "Campo Belo",
   "lat": -20.88959186,
   "lng": -45.2799858
 },
 {
   "name": "Ponte Nova",
   "lat": -20.40962116,
   "lng": -42.8999502
 },
 {
   "name": "Curvelo",
   "lat": -18.75959267,
   "lng": -44.429986
 },
 {
   "name": "Paracatu",
   "lat": -17.19958453,
   "lng": -46.86999211
 },
 {
   "name": "Bocaiuva",
   "lat": -17.10961587,
   "lng": -43.81004968
 },
 {
   "name": "Aracuai",
   "lat": -16.85960529,
   "lng": -42.06994918
 },
 {
   "name": "Janauba",
   "lat": -15.79961831,
   "lng": -43.30997685
 },
 {
   "name": "Juina",
   "lat": -11.3995768,
   "lng": -59.50002222
 },
 {
   "name": "Barra do Garcas",
   "lat": -15.87961342,
   "lng": -52.25999903
 },
 {
   "name": "Pontes e Lacerda",
   "lat": -15.21960203,
   "lng": -59.3499797
 },
 {
   "name": "Barra do Bugres",
   "lat": -15.06958535,
   "lng": -57.19000818
 },
 {
   "name": "Rondonopolis",
   "lat": -16.4694999,
   "lng": -54.63998295
 },
 {
   "name": "Uruguaiana",
   "lat": -29.76961831,
   "lng": -57.08998845
 },
 {
   "name": "Sao Borja",
   "lat": -28.65960854,
   "lng": -56.00997685
 },
 {
   "name": "Novo Hamburgo",
   "lat": -29.70962197,
   "lng": -51.13998987
 },
 {
   "name": "Rio Grande",
   "lat": -32.04947915,
   "lng": -52.12000757
 },
 {
   "name": "Camaqua",
   "lat": -30.83963051,
   "lng": -51.81000065
 },
 {
   "name": "Bento Goncalves",
   "lat": -29.1694999,
   "lng": -51.51996668
 },
 {
   "name": "Vacaria",
   "lat": -28.49961831,
   "lng": -50.94000208
 },
 {
   "name": "Ijui",
   "lat": -28.38954751,
   "lng": -53.91994938
 },
 {
   "name": "Santa Rosa",
   "lat": -27.86952757,
   "lng": -54.4599681
 },
 {
   "name": "Maringa",
   "lat": -23.4095414,
   "lng": -51.92996749
 },
 {
   "name": "Cascavel",
   "lat": -24.95957599,
   "lng": -53.46002914
 },
 {
   "name": "Campo Murao",
   "lat": -24.04960569,
   "lng": -52.41998926
 },
 {
   "name": "Foz do Iguacu",
   "lat": -25.52346922,
   "lng": -54.52998967
 },
 {
   "name": "Sao Francisco do Sul",
   "lat": -26.23960122,
   "lng": -48.59998987
 },
 {
   "name": "Porto Uniao",
   "lat": -26.23960122,
   "lng": -51.07996769
 },
 {
   "name": "Itajai",
   "lat": -26.89961261,
   "lng": -48.68001083
 },
 {
   "name": "Imbituba",
   "lat": -28.22960895,
   "lng": -48.66001205
 },
 {
   "name": "Lajes",
   "lat": -27.80958291,
   "lng": -50.30998885
 },
 {
   "name": "Granja",
   "lat": -3.119513734,
   "lng": -40.83999841
 },
 {
   "name": "Crato",
   "lat": -7.229598776,
   "lng": -39.42000757
 },
 {
   "name": "Itapipoca",
   "lat": -3.499542217,
   "lng": -39.58002364
 },
 {
   "name": "Paracuru",
   "lat": -3.399548321,
   "lng": -39.04003076
 },
 {
   "name": "Acarau",
   "lat": -2.889605287,
   "lng": -40.11999068
 },
 {
   "name": "Taua",
   "lat": -5.999492982,
   "lng": -40.31003076
 },
 {
   "name": "Crateus",
   "lat": -5.165590394,
   "lng": -40.66600387
 },
 {
   "name": "Baturite",
   "lat": -4.329569073,
   "lng": -38.87998885
 },
 {
   "name": "Ipu",
   "lat": -4.319595521,
   "lng": -40.72005742
 },
 {
   "name": "Floriano",
   "lat": -6.769575176,
   "lng": -43.0299681
 },
 {
   "name": "Piripiri",
   "lat": -4.269572735,
   "lng": -41.78999211
 },
 {
   "name": "Penedo",
   "lat": -10.26961994,
   "lng": -36.58002588
 },
 {
   "name": "Itabuna",
   "lat": -14.78960244,
   "lng": -39.28001611
 },
 {
   "name": "Itamaraju",
   "lat": -17.0395943,
   "lng": -39.52994918
 },
 {
   "name": "Guanambi",
   "lat": -14.22958494,
   "lng": -42.78998275
 },
 {
   "name": "Porto Seguro",
   "lat": -16.42960569,
   "lng": -39.08002832
 },
 {
   "name": "Valenca",
   "lat": -13.3596122,
   "lng": -39.08002832
 },
 {
   "name": "Serrinha",
   "lat": -11.64958738,
   "lng": -39.01000676
 },
 {
   "name": "Tucano",
   "lat": -10.96962889,
   "lng": -38.78999435
 },
 {
   "name": "Senhor do Bonfim",
   "lat": -10.44960895,
   "lng": -40.19001225
 },
 {
   "name": "Remanso",
   "lat": -9.599583314,
   "lng": -42.10999841
 },
 {
   "name": "Itambe",
   "lat": -15.23960081,
   "lng": -40.62998539
 },
 {
   "name": "Bom Jesus da Lapa",
   "lat": -13.2495414,
   "lng": -43.44002059
 },
 {
   "name": "Itaberaba",
   "lat": -12.5196118,
   "lng": -40.2999797
 },
 {
   "name": "Sao Mateus",
   "lat": -18.72962034,
   "lng": -39.85998071
 },
 {
   "name": "Patos",
   "lat": -7.019585756,
   "lng": -37.29000838
 },
 {
   "name": "Volta Redonda",
   "lat": -22.51956989,
   "lng": -44.09496769
 },
 {
   "name": "Petropolis",
   "lat": -22.50949298,
   "lng": -43.19998356
 },
 {
   "name": "Nova Cruz",
   "lat": -6.469593487,
   "lng": -35.43999211
 },
 {
   "name": "Caico",
   "lat": -6.459619935,
   "lng": -37.10001998
 },
 {
   "name": "Acu",
   "lat": -5.57962197,
   "lng": -36.91005742
 },
 {
   "name": "Estancia",
   "lat": -11.26961058,
   "lng": -37.45002446
 },
 {
   "name": "Caracarai",
   "lat": 1.816231505,
   "lng": -61.12767481
 },
 {
   "name": "Porto Santana",
   "lat": -0.039598369,
   "lng": -51.17998743
 },
 {
   "name": "Rio Verde",
   "lat": -17.81959837,
   "lng": -50.92997685
 },
 {
   "name": "Pires do Rio",
   "lat": -17.29952675,
   "lng": -48.27998356
 },
 {
   "name": "Anapolis",
   "lat": -16.31958657,
   "lng": -48.9599679
 },
 {
   "name": "Goianesia",
   "lat": -15.30962238,
   "lng": -49.1300092
 },
 {
   "name": "Niquelandia",
   "lat": -14.46962197,
   "lng": -48.47002364
 },
 {
   "name": "Itumbiara",
   "lat": -18.39961465,
   "lng": -49.21000431
 },
 {
   "name": "Jatai",
   "lat": -17.87959471,
   "lng": -51.75000431
 },
 {
   "name": "Mineiros",
   "lat": -17.56953611,
   "lng": -52.55998071
 },
 {
   "name": "Formosa",
   "lat": -15.53947915,
   "lng": -47.33998926
 },
 {
   "name": "Sao Jose do Rio Preto",
   "lat": -20.79962319,
   "lng": -49.38996749
 },
 {
   "name": "Limeira",
   "lat": -22.54954222,
   "lng": -47.40001144
 },
 {
   "name": "Taubate",
   "lat": -23.01953937,
   "lng": -45.55999455
 },
 {
   "name": "Jau",
   "lat": -22.28960976,
   "lng": -48.57001754
 },
 {
   "name": "Assis",
   "lat": -22.65961302,
   "lng": -50.41998214
 },
 {
   "name": "Itapeva",
   "lat": -23.97958413,
   "lng": -48.88002446
 },
 {
   "name": "Botucatu",
   "lat": -22.87959959,
   "lng": -48.44999903
 },
 {
   "name": "Novo Horizonte",
   "lat": -21.45958291,
   "lng": -49.2200037
 },
 {
   "name": "Andradina",
   "lat": -20.90959064,
   "lng": -51.37994938
 },
 {
   "name": "Fernandopolis",
   "lat": -20.2696297,
   "lng": -50.26004358
 },
 {
   "name": "Barreiros",
   "lat": -8.829604473,
   "lng": -35.20000676
 },
 {
   "name": "Salgueiro",
   "lat": -8.059625632,
   "lng": -39.13002527
 },
 {
   "name": "Goiana",
   "lat": -7.559604473,
   "lng": -34.99999312
 },
 {
   "name": "Timbauba",
   "lat": -7.499608135,
   "lng": -35.32002527
 },
 {
   "name": "Bacabal",
   "lat": -4.229988588,
   "lng": -44.79998926
 },
 {
   "name": "Braganca",
   "lat": -1.05002765,
   "lng": -46.76999821
 },
 {
   "name": "Obidos",
   "lat": -1.910026836,
   "lng": -55.52000676
 },
 {
   "name": "Guajara-Miram",
   "lat": -10.80002684,
   "lng": -65.34994938
 },
 {
   "name": "Porto Nacional",
   "lat": -10.70003294,
   "lng": -48.41994918
 },
 {
   "name": "Dourados",
   "lat": -22.23002684,
   "lng": -54.80999841
 },
 {
   "name": "Governador Valadares",
   "lat": -18.87002521,
   "lng": -41.97000696
 },
 {
   "name": "Pirapora",
   "lat": -17.33001585,
   "lng": -44.92998132
 },
 {
   "name": "Juiz de Fora",
   "lat": -21.77000324,
   "lng": -43.3749858
 },
 {
   "name": "Santa Maria",
   "lat": -29.68331867,
   "lng": -53.80000838
 },
 {
   "name": "Passo Fundo",
   "lat": -28.25002114,
   "lng": -52.41998926
 },
 {
   "name": "Xapeco",
   "lat": -27.10001382,
   "lng": -52.64002751
 },
 {
   "name": "Joinville",
   "lat": -26.31995807,
   "lng": -48.83994938
 },
 {
   "name": "Juazeiro do Norte",
   "lat": -7.210013409,
   "lng": -39.32001367
 },
 {
   "name": "Nova Vicosa",
   "lat": -17.88000812,
   "lng": -39.37001062
 },
 {
   "name": "Alagoinhas",
   "lat": -12.13999673,
   "lng": -38.42999048
 },
 {
   "name": "Juazeiro",
   "lat": -9.420007712,
   "lng": -40.49996749
 },
 {
   "name": "Vitoria",
   "lat": -20.32399331,
   "lng": -40.36599634
 },
 {
   "name": "Joao Pessoa",
   "lat": -7.10113513,
   "lng": -34.87607117
 },
 {
   "name": "Campina Grande",
   "lat": -7.230012188,
   "lng": -35.88001693
 },
 {
   "name": "Nova Friburgo",
   "lat": -22.25999917,
   "lng": -42.54004968
 },
 {
   "name": "Aracatuba",
   "lat": -21.20998574,
   "lng": -50.45000615
 },
 {
   "name": "Sena Madureira",
   "lat": -9.070003236,
   "lng": -68.66997929
 },
 {
   "name": "Fonte Boa",
   "lat": -2.513814271,
   "lng": -66.09160954
 },
 {
   "name": "Eirunepe",
   "lat": -6.66002114,
   "lng": -69.87380762
 },
 {
   "name": "Manicore",
   "lat": -5.812165915,
   "lng": -61.29748356
 },
 {
   "name": "Barcelos",
   "lat": -0.97499347,
   "lng": -62.92389592
 },
 {
   "name": "Tonantins",
   "lat": -2.872707093,
   "lng": -67.80189274
 },
 {
   "name": "Tefe",
   "lat": -3.36001585,
   "lng": -64.69998906
 },
 {
   "name": "Coari",
   "lat": -4.079971905,
   "lng": -63.12998153
 },
 {
   "name": "Sao Cabriel da Cachoeira",
   "lat": -0.133236065,
   "lng": -67.08330611
 },
 {
   "name": "Novo Airao",
   "lat": -2.620784486,
   "lng": -60.94378422
 },
 {
   "name": "Itacoatiara",
   "lat": -3.140029278,
   "lng": -58.43998356
 },
 {
   "name": "Parintins",
   "lat": -2.610035788,
   "lng": -56.74000981
 },
 {
   "name": "Natal",
   "lat": -6.983825664,
   "lng": -60.26994938
 },
 {
   "name": "Crato",
   "lat": -7.46389972,
   "lng": -63.03996118
 },
 {
   "name": "Imperatriz",
   "lat": -5.520039043,
   "lng": -47.49000594
 },
 {
   "name": "Balsas",
   "lat": -7.520020326,
   "lng": -46.04999048
 },
 {
   "name": "Breves",
   "lat": -1.680015036,
   "lng": -50.4900037
 },
 {
   "name": "Jacareacanga",
   "lat": -6.266608461,
   "lng": -57.65000594
 },
 {
   "name": "Tucurui",
   "lat": -3.679996319,
   "lng": -49.71999903
 },
 {
   "name": "Itaituba",
   "lat": -4.258617331,
   "lng": -55.92502079
 },
 {
   "name": "Conceicao do Araguaia",
   "lat": -8.250001608,
   "lng": -49.29002527
 },
 {
   "name": "Abaetetuba",
   "lat": -1.724530694,
   "lng": -48.88488014
 },
 {
   "name": "Principe da Beira",
   "lat": -12.41667234,
   "lng": -64.41664718
 },
 {
   "name": "Araguaina",
   "lat": -7.190014629,
   "lng": -48.21001367
 },
 {
   "name": "Palmas",
   "lat": -10.23773558,
   "lng": -48.2877867
 },
 {
   "name": "Teofilo Otoni",
   "lat": -17.87003457,
   "lng": -41.50000981
 },
 {
   "name": "Uberaba",
   "lat": -19.7799955,
   "lng": -47.9500037
 },
 {
   "name": "Januaria",
   "lat": -15.47999957,
   "lng": -44.36998967
 },
 {
   "name": "Mato Grosso",
   "lat": -15.00002887,
   "lng": -59.95002059
 },
 {
   "name": "Aripuana",
   "lat": -9.169997133,
   "lng": -60.64000431
 },
 {
   "name": "Sinop",
   "lat": -11.84998859,
   "lng": -55.45998458
 },
 {
   "name": "Jaguarao",
   "lat": -32.5600423,
   "lng": -53.36998295
 },
 {
   "name": "Bage",
   "lat": -31.32001463,
   "lng": -54.10001591
 },
 {
   "name": "Londrina",
   "lat": -23.30003904,
   "lng": -51.17998743
 },
 {
   "name": "Criciuma",
   "lat": -28.68002073,
   "lng": -49.38996749
 },
 {
   "name": "Aracati",
   "lat": -4.559994284,
   "lng": -37.77003076
 },
 {
   "name": "Ico",
   "lat": -6.400037009,
   "lng": -38.84999068
 },
 {
   "name": "Parnaiba",
   "lat": -2.910017478,
   "lng": -41.76996749
 },
 {
   "name": "Picos",
   "lat": -7.079995505,
   "lng": -41.43998763
 },
 {
   "name": "Arapiraca",
   "lat": -9.750013409,
   "lng": -36.66999455
 },
 {
   "name": "Jequie",
   "lat": -13.85002155,
   "lng": -40.07999312
 },
 {
   "name": "Ilheus",
   "lat": -14.7800423,
   "lng": -39.05000431
 },
 {
   "name": "Canavieiras",
   "lat": -15.64004148,
   "lng": -38.96000981
 },
 {
   "name": "Santa Maria da Vitoria",
   "lat": -13.38999795,
   "lng": -44.21002527
 },
 {
   "name": "Irece",
   "lat": -11.29999632,
   "lng": -41.87001306
 },
 {
   "name": "Xique-Xique",
   "lat": -10.82002562,
   "lng": -42.73001225
 },
 {
   "name": "Linhares",
   "lat": -19.38999347,
   "lng": -40.05002079
 },
 {
   "name": "Campos",
   "lat": -21.74995278,
   "lng": -41.32002079
 },
 {
   "name": "Mossoro",
   "lat": -5.190033347,
   "lng": -37.34000533
 },
 {
   "name": "Aracaju",
   "lat": -10.90002073,
   "lng": -37.11996708
 },
 {
   "name": "Laranjal do Jari",
   "lat": -0.850039857,
   "lng": -52.48001144
 },
 {
   "name": "Amapa",
   "lat": 2.049989847,
   "lng": -50.80001062
 },
 {
   "name": "Vila Velha",
   "lat": 3.21666282,
   "lng": -51.21665186
 },
 {
   "name": "Santos",
   "lat": -23.95372393,
   "lng": -46.33294266
 },
 {
   "name": "Bauru",
   "lat": -22.33002073,
   "lng": -49.08001225
 },
 {
   "name": "Iguape",
   "lat": -24.72000405,
   "lng": -47.56994938
 },
 {
   "name": "Franca",
   "lat": -20.53002724,
   "lng": -47.39001205
 },
 {
   "name": "Garanhuns",
   "lat": -8.890014222,
   "lng": -36.50003076
 },
 {
   "name": "Caruaru",
   "lat": -8.280025616,
   "lng": -35.98001083
 },
 {
   "name": "Rio Branco",
   "lat": -9.966589336,
   "lng": -67.80000655
 },
 {
   "name": "Sao Luis",
   "lat": -2.515984681,
   "lng": -44.26599085
 },
 {
   "name": "Porto Velho",
   "lat": -8.750022767,
   "lng": -63.90001205
 },
 {
   "name": "Alvorada",
   "lat": -12.47000242,
   "lng": -49.08200179
 },
 {
   "name": "Corumba",
   "lat": -19.01601113,
   "lng": -57.65000594
 },
 {
   "name": "Belo Horizonte",
   "lat": -19.91502602,
   "lng": -43.91500452
 },
 {
   "name": "Montes Claros",
   "lat": -16.72002724,
   "lng": -43.86002079
 },
 {
   "name": "Uberlandia",
   "lat": -18.89999754,
   "lng": -48.27998356
 },
 {
   "name": "Colider",
   "lat": -10.81728676,
   "lng": -55.45057947
 },
 {
   "name": "Alta Floresta",
   "lat": -9.900030091,
   "lng": -55.90998295
 },
 {
   "name": "Cuiaba",
   "lat": -15.56960651,
   "lng": -56.08498519
 },
 {
   "name": "Pelotas",
   "lat": -31.75001422,
   "lng": -52.33002059
 },
 {
   "name": "Caxias do Sul",
   "lat": -29.17999022,
   "lng": -51.17003972
 },
 {
   "name": "Ponta Grossa",
   "lat": -25.09000731,
   "lng": -50.16004968
 },
 {
   "name": "Teresina",
   "lat": -5.095000388,
   "lng": -42.7800092
 },
 {
   "name": "Maceio",
   "lat": -9.619995505,
   "lng": -35.72997441
 },
 {
   "name": "Vitoria da Conquista",
   "lat": -14.85001219,
   "lng": -40.83999841
 },
 {
   "name": "Barreiras",
   "lat": -12.13999673,
   "lng": -45.00000289
 },
 {
   "name": "Vila Velha",
   "lat": -20.36760822,
   "lng": -40.31798893
 },
 {
   "name": "Natal",
   "lat": -5.780023174,
   "lng": -35.24000431
 },
 {
   "name": "Campinas",
   "lat": -22.90001178,
   "lng": -47.10002975
 },
 {
   "name": "Sorocaba",
   "lat": -23.49000161,
   "lng": -47.46998132
 },
 {
   "name": "Ribeirao Preto",
   "lat": -21.17003986,
   "lng": -47.82998519
 },
 {
   "name": "Petrolina",
   "lat": -9.380010153,
   "lng": -40.50996688
 },
 {
   "name": "Cruzeiro do Sul",
   "lat": -7.629987774,
   "lng": -72.66996769
 },
 {
   "name": "Manaus",
   "lat": -3.100031719,
   "lng": -60.00001754
 },
 {
   "name": "Caxias",
   "lat": -4.833000876,
   "lng": -43.35002608
 },
 {
   "name": "Santarem",
   "lat": -2.433250713,
   "lng": -54.69997929
 },
 {
   "name": "Maraba",
   "lat": -5.349971905,
   "lng": -49.11597905
 },
 {
   "name": "Vilhena",
   "lat": -12.71660236,
   "lng": -60.11659957
 },
 {
   "name": "Ji-Parana",
   "lat": -10.83330646,
   "lng": -61.96700342
 },
 {
   "name": "Campo Grande",
   "lat": -20.45003213,
   "lng": -54.61662521
 },
 {
   "name": "Florianopolis",
   "lat": -27.57998452,
   "lng": -48.52002059
 },
 {
   "name": "Feira de Santana",
   "lat": -12.25001585,
   "lng": -38.9700092
 },
 {
   "name": "Boa Vista",
   "lat": 2.816092955,
   "lng": -60.66599756
 },
 {
   "name": "Macapa",
   "lat": 0.033007018,
   "lng": -51.0500212
 },
 {
   "name": "Belem",
   "lat": -1.450003236,
   "lng": -48.48002303
 },
 {
   "name": "Brasilia",
   "lat": -15.78334023,
   "lng": -47.91605229
 },
 {
   "name": "Porto Alegre",
   "lat": -30.05001463,
   "lng": -51.20001205
 },
 {
   "name": "Curitiba",
   "lat": -25.420013,
   "lng": -49.3199976
 },
 {
   "name": "Fortaleza",
   "lat": -3.750017884,
   "lng": -38.57998132
 },
 {
   "name": "Salvador",
   "lat": -12.9699719,
   "lng": -38.47998743
 },
 {
   "name": "Goiania",
   "lat": -16.72002724,
   "lng": -49.30002466
 },
 {
   "name": "Recife",
   "lat": -8.075645326,
   "lng": -34.91560551
 },
 {
   "name": "Rio de Janeiro",
   "lat": -22.92502317,
   "lng": -43.22502079
 },
 {
   "name": "Sao Paulo",
   "lat": -23.55867959,
   "lng": -46.62501998
 },
 {
   "name": "Bandar Seri Begawan",
   "lat": 4.883331115,
   "lng": 114.9332841
 },
 {
   "name": "Lovec",
   "lat": 43.13799911,
   "lng": 24.71900459
 },
 {
   "name": "Montana",
   "lat": 43.41400203,
   "lng": 23.23700161
 },
 {
   "name": "Razgrad",
   "lat": 43.53399903,
   "lng": 26.53599663
 },
 {
   "name": "Sliven",
   "lat": 42.67937034,
   "lng": 26.33001013
 },
 {
   "name": "Plovdiv",
   "lat": 42.15397605,
   "lng": 24.7539823
 },
 {
   "name": "Pernik",
   "lat": 42.60999473,
   "lng": 23.02271846
 },
 {
   "name": "Vratsa",
   "lat": 43.20998395,
   "lng": 23.56253048
 },
 {
   "name": "Shumen",
   "lat": 43.27000612,
   "lng": 26.92935339
 },
 {
   "name": "Khaskovo",
   "lat": 41.94378216,
   "lng": 25.5632869
 },
 {
   "name": "Stara Zagora",
   "lat": 42.42313275,
   "lng": 25.6227148
 },
 {
   "name": "Pleven",
   "lat": 43.42376935,
   "lng": 24.61337073
 },
 {
   "name": "Turnovo",
   "lat": 43.08624473,
   "lng": 25.65552934
 },
 {
   "name": "Kyustendil",
   "lat": 42.28427818,
   "lng": 22.6911108
 },
 {
   "name": "Dobrich",
   "lat": 43.58505149,
   "lng": 27.83999548
 },
 {
   "name": "Varna",
   "lat": 43.21564252,
   "lng": 27.89528926
 },
 {
   "name": "Ruse",
   "lat": 43.85369143,
   "lng": 25.97333939
 },
 {
   "name": "Burgas",
   "lat": 42.51460004,
   "lng": 27.47464311
 },
 {
   "name": "Sofia",
   "lat": 42.68334943,
   "lng": 23.31665401
 },
 {
   "name": "Fada Ngourma",
   "lat": 12.05499605,
   "lng": 0.360999451
 },
 {
   "name": "Orodara",
   "lat": 10.97399705,
   "lng": -4.907996452
 },
 {
   "name": "Solenzo",
   "lat": 12.1833333,
   "lng": -4.0833333
 },
 {
   "name": "Nouna",
   "lat": 12.7289971,
   "lng": -3.860000519
 },
 {
   "name": "Dedougou",
   "lat": 12.455001,
   "lng": -3.464000439
 },
 {
   "name": "Gorom Gorom",
   "lat": 14.45000398,
   "lng": -0.233297546
 },
 {
   "name": "Djibo",
   "lat": 14.09900404,
   "lng": -1.627001421
 },
 {
   "name": "Tougan",
   "lat": 13.06899899,
   "lng": -3.069998409
 },
 {
   "name": "Kombissiri",
   "lat": 12.06399605,
   "lng": -1.333997543
 },
 {
   "name": "Ziniare",
   "lat": 12.57699605,
   "lng": -1.293002442
 },
 {
   "name": "Yako",
   "lat": 12.95399712,
   "lng": -2.262995501
 },
 {
   "name": "Reo",
   "lat": 12.33349214,
   "lng": -2.466944513
 },
 {
   "name": "Leo",
   "lat": 11.09400299,
   "lng": -2.097998529
 },
 {
   "name": "Sapouy",
   "lat": 11.5544444,
   "lng": -1.7736111
 },
 {
   "name": "Boulsa",
   "lat": 12.65699714,
   "lng": -0.568997532
 },
 {
   "name": "Zorgo",
   "lat": 12.24299707,
   "lng": -0.611000429
 },
 {
   "name": "Koupela",
   "lat": 12.17700004,
   "lng": -0.356003514
 },
 {
   "name": "Po",
   "lat": 11.16900002,
   "lng": -1.134998478
 },
 {
   "name": "Manga",
   "lat": 11.66200198,
   "lng": -1.064996408
 },
 {
   "name": "Diebougou",
   "lat": 10.95200113,
   "lng": -3.248000411
 },
 {
   "name": "Gaoua",
   "lat": 10.32499811,
   "lng": -3.174002407
 },
 {
   "name": "Bogande",
   "lat": 12.96900003,
   "lng": -0.1379965
 },
 {
   "name": "Dori",
   "lat": 14.0339971,
   "lng": -0.027998519
 },
 {
   "name": "Sebba",
   "lat": 13.4364122,
   "lng": 0.530443
 },
 {
   "name": "Diapaga",
   "lat": 12.07700108,
   "lng": 1.796004571
 },
 {
   "name": "Koudougou",
   "lat": 12.25047833,
   "lng": -2.369995159
 },
 {
   "name": "Ouahigouya",
   "lat": 13.5704236,
   "lng": -2.419992108
 },
 {
   "name": "Kaya",
   "lat": 13.09037539,
   "lng": -1.090047446
 },
 {
   "name": "Tenkodogo",
   "lat": 11.78040367,
   "lng": -0.369703818
 },
 {
   "name": "Banfora",
   "lat": 10.63044802,
   "lng": -4.760004315
 },
 {
   "name": "Bobo Dioulasso",
   "lat": 11.1799752,
   "lng": -4.289981325
 },
 {
   "name": "Ouagadougou",
   "lat": 12.37031598,
   "lng": -1.524723756
 },
 {
   "name": "Cankuzo",
   "lat": -3.166703921,
   "lng": 30.51669662
 },
 {
   "name": "Karusi",
   "lat": -3.099995968,
   "lng": 30.16299648
 },
 {
   "name": "Rutana",
   "lat": -3.93100195,
   "lng": 29.99300455
 },
 {
   "name": "Ruyigi",
   "lat": -3.481001905,
   "lng": 30.2439966
 },
 {
   "name": "Bubanza",
   "lat": -3.083300984,
   "lng": 29.36670351
 },
 {
   "name": "Kayanza",
   "lat": -2.899997879,
   "lng": 29.5667016
 },
 {
   "name": "Makamba",
   "lat": -4.133303903,
   "lng": 29.79999964
 },
 {
   "name": "Ngozi",
   "lat": -2.912003884,
   "lng": 29.82500157
 },
 {
   "name": "Kirundo",
   "lat": -2.5847222,
   "lng": 30.0972222
 },
 {
   "name": "Muramvya",
   "lat": -3.260997006,
   "lng": 29.61199862
 },
 {
   "name": "Bururi",
   "lat": -3.950729147,
   "lng": 29.61657955
 },
 {
   "name": "Muyinga",
   "lat": -2.852346579,
   "lng": 30.31726029
 },
 {
   "name": "Gitega",
   "lat": -3.426006654,
   "lng": 29.84359411
 },
 {
   "name": "Bujumbura",
   "lat": -3.37608722,
   "lng": 29.36000606
 },
 {
   "name": "Kampong Spoe",
   "lat": 11.4519961,
   "lng": 104.5189986
 },
 {
   "name": "Kampong Thum",
   "lat": 12.71199613,
   "lng": 104.8889977
 },
 {
   "name": "Prey Veng",
   "lat": 11.48399998,
   "lng": 105.3240036
 },
 {
   "name": "Phnum Tbeng Meanchey",
   "lat": 13.816701,
   "lng": 104.9667037
 },
 {
   "name": "Stoeng Treng",
   "lat": 13.52300408,
   "lng": 105.9740016
 },
 {
   "name": "Kracheh",
   "lat": 12.46899612,
   "lng": 106.0239967
 },
 {
   "name": "Senmonorom",
   "lat": 12.44999711,
   "lng": 107.1999997
 },
 {
   "name": "Lumphat",
   "lat": 13.50700214,
   "lng": 106.9810026
 },
 {
   "name": "Svay Rieng",
   "lat": 11.0799991,
   "lng": 105.8010036
 },
 {
   "name": "Sisophon",
   "lat": 13.58375612,
   "lng": 102.9833158
 },
 {
   "name": "Krong Koh Kong",
   "lat": 11.61753897,
   "lng": 102.9849329
 },
 {
   "name": "Pursat",
   "lat": 12.53369102,
   "lng": 103.9166955
 },
 {
   "name": "Kampong Cham",
   "lat": 12.00044191,
   "lng": 105.4500386
 },
 {
   "name": "Kompong Chhnang",
   "lat": 12.25047833,
   "lng": 104.6666239
 },
 {
   "name": "Kampot",
   "lat": 10.61708966,
   "lng": 104.1833459
 },
 {
   "name": "Takeo",
   "lat": 10.98375978,
   "lng": 104.7833093
 },
 {
   "name": "Battambang",
   "lat": 13.10001304,
   "lng": 103.2000468
 },
 {
   "name": "Siem Reap",
   "lat": 13.36663759,
   "lng": 103.8500329
 },
 {
   "name": "Phnom Penh",
   "lat": 11.55003013,
   "lng": 104.9166345
 },
 {
   "name": "Buea",
   "lat": 4.155003087,
   "lng": 9.231003513
 },
 {
   "name": "Bafang",
   "lat": 5.170393696,
   "lng": 10.17998816
 },
 {
   "name": "Foumban",
   "lat": 5.730385355,
   "lng": 10.89999589
 },
 {
   "name": "Bafoussam",
   "lat": 5.490425841,
   "lng": 10.40994828
 },
 {
   "name": "Kumba",
   "lat": 4.640374368,
   "lng": 9.439981647
 },
 {
   "name": "Eyumojok",
   "lat": 5.750358296,
   "lng": 8.983317015
 },
 {
   "name": "Limbe",
   "lat": 4.030385761,
   "lng": 9.190022744
 },
 {
   "name": "Kribi",
   "lat": 2.940426452,
   "lng": 9.910030476
 },
 {
   "name": "Nkongsamba",
   "lat": 4.960406513,
   "lng": 9.940002806
 },
 {
   "name": "Edea",
   "lat": 3.800477314,
   "lng": 10.11999182
 },
 {
   "name": "Wum",
   "lat": 6.400421976,
   "lng": 10.07002071
 },
 {
   "name": "Kumbo",
   "lat": 6.220381286,
   "lng": 10.68000932
 },
 {
   "name": "Bafia",
   "lat": 4.750393493,
   "lng": 11.23000159
 },
 {
   "name": "Mbalmayo",
   "lat": 3.520391051,
   "lng": 11.50001094
 },
 {
   "name": "Eseka",
   "lat": 3.650408955,
   "lng": 10.76661902
 },
 {
   "name": "Bertoua",
   "lat": 4.580429707,
   "lng": 13.67998124
 },
 {
   "name": "Abong Mbang",
   "lat": 3.983696105,
   "lng": 13.18331905
 },
 {
   "name": "Batouri",
   "lat": 4.433694477,
   "lng": 14.366606
 },
 {
   "name": "Belabo",
   "lat": 4.933689798,
   "lng": 13.30000443
 },
 {
   "name": "Meiganga",
   "lat": 6.520492166,
   "lng": 14.28996985
 },
 {
   "name": "Ngaoundere",
   "lat": 7.320365823,
   "lng": 13.57998734
 },
 {
   "name": "Tibati",
   "lat": 6.46698122,
   "lng": 12.63332678
 },
 {
   "name": "Kontcha",
   "lat": 7.967018859,
   "lng": 12.23329952
 },
 {
   "name": "Guider",
   "lat": 9.930387389,
   "lng": 13.94001705
 },
 {
   "name": "Mbe",
   "lat": 7.850436828,
   "lng": 13.6000378
 },
 {
   "name": "Douala",
   "lat": 4.060409769,
   "lng": 9.709991006
 },
 {
   "name": "Ebolowa",
   "lat": 2.900015481,
   "lng": 11.15000647
 },
 {
   "name": "Bamenda",
   "lat": 5.959983743,
   "lng": 10.15001583
 },
 {
   "name": "Garoua",
   "lat": 9.30001243,
   "lng": 13.39002478
 },
 {
   "name": "Maroua",
   "lat": 10.59556643,
   "lng": 14.32469641
 },
 {
   "name": "Yaounde",
   "lat": 3.866700662,
   "lng": 11.51665076
 },
 {
   "name": "Selkirk",
   "lat": 50.15002545,
   "lng": -96.88332178
 },
 {
   "name": "Berens River",
   "lat": 52.36655682,
   "lng": -97.03331262
 },
 {
   "name": "Pukatawagan",
   "lat": 55.73327639,
   "lng": -101.3166171
 },
 {
   "name": "Gimli",
   "lat": 50.63330345,
   "lng": -96.99998133
 },
 {
   "name": "Island Lake",
   "lat": 53.96658836,
   "lng": -94.7665776
 },
 {
   "name": "Melville",
   "lat": 50.93331097,
   "lng": -102.7999891
 },
 {
   "name": "Weyburn",
   "lat": 49.66656659,
   "lng": -103.8500025
 },
 {
   "name": "La Ronge",
   "lat": 55.10000755,
   "lng": -105.3000173
 },
 {
   "name": "Stony Rapids",
   "lat": 59.26657493,
   "lng": -105.8332664
 },
 {
   "name": "Camrose",
   "lat": 53.01669802,
   "lng": -112.8166386
 },
 {
   "name": "Hinton",
   "lat": 53.39998212,
   "lng": -117.5833503
 },
 {
   "name": "Vegreville",
   "lat": 53.49997601,
   "lng": -112.0499671
 },